{
  "resultNum": 982,
  "libs": [
    {
      "lib": {
        "libCode": "127058",
        "libName": "2.28도서관",
        "address": "대구광역시 중구 2·28길 9",
        "tel": "053-257-2280",
        "fax": "053-257-2284",
        "latitude": "35.8592504",
        "longitude": "128.5894055",
        "homepage": "http://library.daegu.go.kr/228lib/index.do",
        "closed": "매주 월요일 / 법정공휴일(일요일을 제외한 관공서 공휴일), 도서관 및 기타 사정으로 위탁기관장이 정하는 날",
        "operatingTime": "화~금 09:00~20:00, 토일 09:00~17:00",
        "BookCount": 54122
      }
    },
    {
      "lib": {
        "libCode": "148096",
        "libName": "U보라작은도서관",
        "address": "경상남도 김해시 전하로176번길 71, 반도보라아파트 주민공동시설 2층",
        "tel": "055-324-3335",
        "fax": "-",
        "latitude": "35.223558",
        "longitude": "128.874226",
        "homepage": "http://lib.gimhae.go.kr/01293/01298/00212.web",
        "closed": "매주 일요일 / 법정공휴일, 임시공휴일",
        "operatingTime": "-",
        "BookCount": 6989
      }
    },
    {
      "lib": {
        "libCode": "111456",
        "libName": "가락몰도서관",
        "address": "서울 송파구 양재대로 932",
        "tel": "02-3435-0950",
        "fax": "02-3435-0959",
        "latitude": "37.492994",
        "longitude": "127.112326",
        "homepage": "http://www.splib.or.kr/spalib/",
        "closed": "매주 월요일 / 법정공휴일, 기타 도서관 사정에 의해 관장이 정한 날",
        "operatingTime": "09:00 ~ 18:00",
        "BookCount": 28139
      }
    },
    {
      "lib": {
        "libCode": "125010",
        "libName": "가수원도서관",
        "address": "대전광역시 서구 가수원로 91-11",
        "tel": "042-288-4770",
        "fax": "042-288-5937",
        "latitude": "36.3019",
        "longitude": "127.348812",
        "homepage": "http://www.seogu.go.kr/learning/gasuwonlib/index.do",
        "closed": "매주 월요일 / 국경일, 정부에서 정한 공휴일, 도서관 사정으로 인한 휴관하는 날",
        "operatingTime": "(하계) 07:00~22:00, (동계) 08:00~22:00",
        "BookCount": 161333
      }
    },
    {
      "lib": {
        "libCode": "125012",
        "libName": "가양도서관",
        "address": "대전광역시 동구 우암로277번길 72",
        "tel": "042-259-7081",
        "fax": "042-628-8168",
        "latitude": "36.3489771",
        "longitude": "127.4451507",
        "homepage": "https://www.donggu.go.kr/dg/lib",
        "closed": "매주 월요일 / 국경일, 기타 원장이 필요하다고 인정되는 경우",
        "operatingTime": "평일 08:00 ~ 22:00, 주말 08:00 ~ 18:00",
        "BookCount": 144142
      }
    },
    {
      "lib": {
        "libCode": "125008",
        "libName": "가오도서관",
        "address": "대전광역시 동구 동구청로 147",
        "tel": "042-259-7051",
        "fax": "042-224-6171",
        "latitude": "36.3124314",
        "longitude": "127.4553237",
        "homepage": "https://www.donggu.go.kr/dg/lib",
        "closed": "매주 월요일 / 국경일, 기타 원장이 필요하다고 인정되는 경우",
        "operatingTime": "08:00~22:00",
        "BookCount": 134633
      }
    },
    {
      "lib": {
        "libCode": "131059",
        "libName": "가온누리작은도서관",
        "address": "울산광역시 북구 신천소공원로 15, 108동 1층",
        "tel": "052-292-2774",
        "fax": "-",
        "latitude": "35.6454614",
        "longitude": "129.346506",
        "homepage": "https://usbl.bukgu.ulsan.kr/",
        "closed": "매주 토요일, 일요일 / 법정공휴일",
        "operatingTime": "-",
        "BookCount": 9666
      }
    },
    {
      "lib": {
        "libCode": "111108",
        "libName": "가온도서관",
        "address": "서울특별시 중구 신당2동 425-23",
        "tel": "02-2230-2921",
        "fax": "02-2285-4607",
        "latitude": "37.5563885",
        "longitude": "127.0108687",
        "homepage": "https://www.e-junggulib.or.kr/",
        "closed": "매주 월요일 / 일요일을 제외한 법정공휴일",
        "operatingTime": "-",
        "BookCount": 67743
      }
    },
    {
      "lib": {
        "libCode": "127065",
        "libName": "가창면 참꽃 작은도서관",
        "address": "대구광역시 달성군 가창면 가창로220길 8",
        "tel": "053-760-7731",
        "fax": "-",
        "latitude": "35.8023213",
        "longitude": "128.623414",
        "homepage": "http://dalseong.daegu.kr/culture/index.do?menu_id=00001924",
        "closed": "-",
        "operatingTime": "-",
        "BookCount": 17161
      }
    },
    {
      "lib": {
        "libCode": "125004",
        "libName": "갈마도서관",
        "address": "대전광역시 서구 신갈마로127번길 138",
        "tel": "042-288-4740",
        "fax": "042-288-5936",
        "latitude": "36.3409156",
        "longitude": "127.3656805",
        "homepage": "http://www.seogu.go.kr/learning/galmalib/index.do",
        "closed": "매주 월요일 / 국경일, 정부에서 정한 공휴일, 도서관 사정으로 인한 휴관하는 날",
        "operatingTime": "동절기:08:00~22:00 하절기:07:00~22:00",
        "BookCount": 247659
      }
    },
    {
      "lib": {
        "libCode": "711308",
        "libName": "갈현1동문화의집",
        "address": "서울특별시 은평구 갈현로 301",
        "tel": "02-351-5108",
        "fax": "-",
        "latitude": "37.623970",
        "longitude": "126.916586",
        "homepage": "http://lib.eplib.or.kr/",
        "closed": "매주 일요일 / 법정공휴일, 기타 도서관 사정에 의한 임시 휴관일",
        "operatingTime": "-",
        "BookCount": 9530
      }
    },
    {
      "lib": {
        "libCode": "111070",
        "libName": "강남구립논현도서관",
        "address": "서울특별시 강남구 학동로43길 17",
        "tel": "02-3443-7650",
        "fax": "02-542-6459",
        "latitude": "37.5173333",
        "longitude": "127.0372",
        "homepage": "https://library.gangnam.go.kr/nhlib",
        "closed": "매월 둘째주, 넷째주 화요일 / 일요일을 제외한 법정공휴일",
        "operatingTime": "자료실:(평일 9:00~22:00, 주말 9:00~17:00)열람실 6:00~22:00",
        "BookCount": 65043
      }
    },
    {
      "lib": {
        "libCode": "111039",
        "libName": "강남구립대치도서관",
        "address": "서울특별시 강남구 삼성로 212, 은마아파트 복지상가 2층 215호",
        "tel": "02-565-6666",
        "fax": "02-554-6666",
        "latitude": "37.4953832",
        "longitude": "127.063706",
        "homepage": "https://library.gangnam.go.kr/dchlib",
        "closed": "매월 둘째주, 넷째주 화요일 / 법정공휴일",
        "operatingTime": "자료실(월~금:09:00~18:00/ 토·일: 09:00~17:00), 열람실(월~일: 06:00~21:00)",
        "BookCount": 67528
      }
    },
    {
      "lib": {
        "libCode": "111347",
        "libName": "강남구립도곡정보문화도서관",
        "address": "서울특별시 강남구 도곡로18길 57",
        "tel": "1644-3227",
        "fax": "02-529-0377",
        "latitude": "37.4881818",
        "longitude": "127.038923",
        "homepage": "https://library.gangnam.go.kr/dogoklib/",
        "closed": "매월 첫째주, 셋째주 월요일 / 법정공휴일, 관장이 필요하다고 인정하는 날",
        "operatingTime": "06:00-22:00",
        "BookCount": 102578
      }
    },
    {
      "lib": {
        "libCode": "111479",
        "libName": "강남구립못골도서관",
        "address": "서울특별시 강남구 자곡로 116",
        "tel": "02-459-5522",
        "fax": "-",
        "latitude": "37.471524",
        "longitude": "127.096698",
        "homepage": "https://library.gangnam.go.kr/mglib",
        "closed": "매월 둘째주, 넷째주 화요일 / 법정공휴일",
        "operatingTime": "-",
        "BookCount": 44945
      }
    },
    {
      "lib": {
        "libCode": "111474",
        "libName": "강남구립못골한옥어린이도서관",
        "address": "서울특별시 강남구 자곡로 7길 3",
        "tel": "02-2226-5930",
        "fax": "02-2226-5931",
        "latitude": "37.473163",
        "longitude": "127.099305",
        "homepage": "https://library.gangnam.go.kr/hchildlib",
        "closed": "매월 첫째주, 셋째주 월요일 / 일요일을 제외한 법정공휴일",
        "operatingTime": "-",
        "BookCount": 19877
      }
    },
    {
      "lib": {
        "libCode": "111103",
        "libName": "강남구립역삼도서관",
        "address": "서울특별시 강남구 역삼로7길 16",
        "tel": "02-508-1139",
        "fax": "02-508-1139",
        "latitude": "37.4952602",
        "longitude": "127.033191",
        "homepage": "https://library.gangnam.go.kr/yslib",
        "closed": "매월 첫째주, 셋째주 월요일 / 일요일을 제외한 법정공휴일",
        "operatingTime": "평일: 09시-22시 주말: 09시-17시 (열람실 06시-22시)",
        "BookCount": 43190
      }
    },
    {
      "lib": {
        "libCode": "111127",
        "libName": "강남구립역삼푸른솔도서관",
        "address": "서울특별시 강남구 테헤란로8길 36",
        "tel": "02-2051-1178",
        "fax": "02-2051-1178",
        "latitude": "37.4964736",
        "longitude": "127.031856",
        "homepage": "https://library.gangnam.go.kr/ysplib",
        "closed": "매월 둘째주, 넷째주 화요일 / 법정공휴일",
        "operatingTime": "자료실: 09시~18시(월~금) 09시~17시(토,일) / 열람실: 06시~22시",
        "BookCount": 47134
      }
    },
    {
      "lib": {
        "libCode": "111073",
        "libName": "강남구립정다운도서관",
        "address": "서울특별시 강남구 학동로67길 11",
        "tel": "02-512-9326",
        "fax": "-",
        "latitude": "37.5190642",
        "longitude": "127.046371",
        "homepage": "https://library.gangnam.go.kr/jdwlib",
        "closed": "매월 둘째주, 넷째주 화요일 / 일요일을 제외한 법정공휴일",
        "operatingTime": "평일: 09시-18시 주말: 09시-17시 (열람실 06시-22시)",
        "BookCount": 61784
      }
    },
    {
      "lib": {
        "libCode": "111056",
        "libName": "강남구립즐거운도서관",
        "address": "서울특별시 강남구 도곡로77길 23",
        "tel": "02-565-7533",
        "fax": "02-563-7383",
        "latitude": "37.4997257",
        "longitude": "127.057818",
        "homepage": "https://library.gangnam.go.kr/jgwlib",
        "closed": "매월 첫째주, 셋째주 월요일 / 일요일을 제외한 법정공휴일",
        "operatingTime": "자료실09:00-18:00(평일)09:00-17:00(주말) / 열람실06:00-22:00",
        "BookCount": 57012
      }
    },
    {
      "lib": {
        "libCode": "111069",
        "libName": "강남구립청담도서관",
        "address": "서울특별시 강남구 압구정로79길 26",
        "tel": "02-540-7042",
        "fax": "02-540-7043",
        "latitude": "37.5250583",
        "longitude": "127.0493",
        "homepage": "https://library.gangnam.go.kr/cdlib",
        "closed": "매월 첫번째, 세번째 월요일 / 일요일을 제외한 법정공휴일",
        "operatingTime": "평일 - 09:00~22:00, 주말 - 09:00~17:00",
        "BookCount": 41519
      }
    },
    {
      "lib": {
        "libCode": "111075",
        "libName": "강남구립행복한도서관",
        "address": "서울특별시 강남구 영동대로65길 24",
        "tel": "02-567-3833",
        "fax": "02-565-3834",
        "latitude": "37.5022554",
        "longitude": "127.06415",
        "homepage": "https://library.gangnam.go.kr/happylib",
        "closed": "매월 둘째주, 넷째주 화요일 / 일요일을 제외한 법정공휴일",
        "operatingTime": "평일: 자료실(09:00~22:00), 열람실(06:00~22:00) / 토,일: 자료실(09:00~17:00), 열람실(06:00~22:00)",
        "BookCount": 59814
      }
    },
    {
      "lib": {
        "libCode": "111003",
        "libName": "강남도서관",
        "address": "서울특별시 강남구 선릉로116길 45",
        "tel": "02-3448-4741",
        "fax": "02-3443-4713",
        "latitude": "37.5137356",
        "longitude": "127.046991",
        "homepage": "http://gnlib.sen.go.kr/",
        "closed": "매월 첫째주, 셋째주 수요일 / 법정공휴일, 기타 사정으로 도서관장이 정하는 날",
        "operatingTime": "자료실 평일09:00-18:00 (종합자료실 20:00) 주말09:00-17:00",
        "BookCount": 241645
      }
    },
    {
      "lib": {
        "libCode": "111125",
        "libName": "강동구립강일도서관",
        "address": "서울특별시 강동구 아리수로93길 9-14, 5층",
        "tel": "02-427-4004",
        "fax": "02-427-0588",
        "latitude": "37.5650504",
        "longitude": "127.1738009",
        "homepage": "http://www.gdlibrary.or.kr/gilib",
        "closed": "매주 화요일 / 법정공휴일(일요일 제외)",
        "operatingTime": "평일 : 9시 ~ 18시 (종합자료실 20시) / 주말 9시 ~17시",
        "BookCount": 128355
      }
    },
    {
      "lib": {
        "libCode": "111078",
        "libName": "강동구립성내도서관",
        "address": "서울특별시 강동구 성안로 106-1",
        "tel": "02-471-0044",
        "fax": "02-471-1072",
        "latitude": "37.5327964",
        "longitude": "127.1333283",
        "homepage": "http://www.gdlibrary.or.kr/snlib",
        "closed": "매주 월요일 / 법정공휴일(일요일 제외)",
        "operatingTime": "평일 : 9시 ~ 18시 (종합자료실 18시) / 주말 9시 ~17시",
        "BookCount": 111877
      }
    },
    {
      "lib": {
        "libCode": "111176",
        "libName": "강동구립암사도서관",
        "address": "서울특별시 강동구 고덕로20길 42",
        "tel": "02-429-0476",
        "fax": "02-429-0471",
        "latitude": "37.5528007",
        "longitude": "127.1333457",
        "homepage": "http://www.gdlibrary.or.kr/aslib",
        "closed": "매주 월요일 / 법정공휴일(일요일 제외)",
        "operatingTime": "평일 : 9시 ~ 18시 (종합자료실 22시) / 주말 9시 ~17시",
        "BookCount": 126064
      }
    },
    {
      "lib": {
        "libCode": "111470",
        "libName": "강동구립천호도서관",
        "address": "서울특별시 강동구 성안로 31마길 1, 2층",
        "tel": "02-488-7223",
        "fax": "02-488-7225",
        "latitude": "37.5408046",
        "longitude": "127.1338987",
        "homepage": "http://www.gdlibrary.or.kr/chlib",
        "closed": "매주 월요일 / 법정공휴일(일요일 제외)",
        "operatingTime": "평일 : 9시 ~ 18시 / 주말 9시 ~17시",
        "BookCount": 46624
      }
    },
    {
      "lib": {
        "libCode": "111101",
        "libName": "강동구립해공도서관",
        "address": "서울특별시 강동구 올림픽로 702",
        "tel": "02-478-9656",
        "fax": "02-478-9658",
        "latitude": "37.5443685",
        "longitude": "127.126709",
        "homepage": "http://www.gdlibrary.or.kr/hglib",
        "closed": "매주 화요일 / 법정공휴일(일요일 제외)",
        "operatingTime": "평일 : 9시 ~ 18시 (종합자료실 22시) / 주말 9시 ~17시",
        "BookCount": 138122
      }
    },
    {
      "lib": {
        "libCode": "111004",
        "libName": "강동도서관",
        "address": "서울특별시 강동구 양재대로116길 57",
        "tel": "02-2225-9800",
        "fax": "02-471-8520",
        "latitude": "37.5385252",
        "longitude": "127.143756",
        "homepage": "http://gdlib.sen.go.kr/",
        "closed": "매월 첫째주, 셋째주 목요일 / 일요일을 제외한 법정공휴일, 기타 관장이 필요하다고 인정하는 날",
        "operatingTime": "07:00-23:00",
        "BookCount": 336844
      }
    },
    {
      "lib": {
        "libCode": "142001",
        "libName": "강릉교육문화관",
        "address": "강원도 강릉시 노암등길 37-1",
        "tel": "033-640-9941",
        "fax": "033-640-9905",
        "latitude": "37.745942",
        "longitude": "128.9000051",
        "homepage": "http://lib.gwe.go.kr/kanglib/",
        "closed": "매주 월요일 / 법정공휴일, 임시 휴관일",
        "operatingTime": "종합자료실(화~금 : 09:00~22:00, 토~일요일 : 09:00~18:00), 열람실(08:00~23:00)",
        "BookCount": 306578
      }
    },
    {
      "lib": {
        "libCode": "111037",
        "libName": "강북문화정보도서관",
        "address": "서울특별시 강북구 오현로 145",
        "tel": "02-944-3100",
        "fax": "02-944-3139",
        "latitude": "37.6248352",
        "longitude": "127.0360823",
        "homepage": "https://www.gblib.or.kr/gangbuk/",
        "closed": "매월 둘째주, 넷째주 월요일 / 정부지정 공휴일, 특별한 사유로 관장이 필요하다고 인정한 경우",
        "operatingTime": "07:00~23:00",
        "BookCount": 259711
      }
    },
    {
      "lib": {
        "libCode": "111038",
        "libName": "강북청소년문화정보도서관",
        "address": "서울특별시 강북구 삼양로54길 68",
        "tel": "02-944-3140",
        "fax": "02-944-3149",
        "latitude": "37.6230299",
        "longitude": "127.0215671",
        "homepage": "https://www.gblib.or.kr/youth/",
        "closed": "매월 둘째주, 넷째주 월요일 / 정부지정 공휴일, 특별한 사유로 관장이 필요하다고 인정한 경우",
        "operatingTime": "0.291666666666667",
        "BookCount": 49699
      }
    },
    {
      "lib": {
        "libCode": "111453",
        "libName": "강서구립가양도서관",
        "address": "서울특별시 강서구 양천로61길 101",
        "tel": "02-3665-8797",
        "fax": "02-3665-0235",
        "latitude": "37.559397",
        "longitude": "126.8653386",
        "homepage": "http://lib.gangseo.seoul.kr/",
        "closed": "매주 월요일 / 일요일을 제외한 법정공휴일(단, 일요일과 법정공휴일이 겹칠 경우 휴관)",
        "operatingTime": "어린이자료실=화~금 9:00~18:00, 토~일 9:00~17:00 / 종합자료실, 학습열람실=화~토 9:00~22:00, 일 9:00~17:00",
        "BookCount": 43574
      }
    },
    {
      "lib": {
        "libCode": "111378",
        "libName": "강서구립곰달래도서관",
        "address": "서울특별시 강서구 강서로5길 50",
        "tel": "02-2065-3785",
        "fax": "02-2065-3799",
        "latitude": "37.5291122",
        "longitude": "126.8490778",
        "homepage": "http://lib.gangseo.seoul.kr/",
        "closed": "매주 월요일 / 일요일을 제외한 법정공휴일(단, 일요일과 법정공휴일이 겹칠 경우 휴관)",
        "operatingTime": "09시",
        "BookCount": 59041
      }
    },
    {
      "lib": {
        "libCode": "111067",
        "libName": "강서구립길꽃어린이도서관",
        "address": "서울특별시 강서구 금낭화로24길 5",
        "tel": "02-2663-4764",
        "fax": "02-2663-4766",
        "latitude": "37.5786886",
        "longitude": "126.8138658",
        "homepage": "http://lib.gangseo.seoul.kr/",
        "closed": "매주 월요일 / 일요일을 제외한 법정공휴일(단, 일요일과 법정공휴일이 겹칠 경우 휴관)",
        "operatingTime": "09:00~22:00",
        "BookCount": 70250
      }
    },
    {
      "lib": {
        "libCode": "111098",
        "libName": "강서구립꿈꾸는어린이도서관",
        "address": "서울특별시 강서구 공항대로 615",
        "tel": "02-3663-4025",
        "fax": "02-3663-4024",
        "latitude": "37.5473333",
        "longitude": "126.8731625",
        "homepage": "http://lib.gangseo.seoul.kr/",
        "closed": "매주 월요일 / 일요일을 제외한 법정공휴일(단, 일요일과 법정공휴일이 겹칠 경우 휴관)",
        "operatingTime": "3층 꿈동이자료실 :  화~금 9:00~18:00, 토~일 9:00~17:00 / 4층 꿈돌이자료실 : 화~토 9:00~22:00, 일 9:00~17:00",
        "BookCount": 73021
      }
    },
    {
      "lib": {
        "libCode": "111309",
        "libName": "강서구립등빛도서관",
        "address": "서울특별시 강서구 강서로62길 48",
        "tel": "02-3664-6990",
        "fax": "02-3664-8045",
        "latitude": "37.5624339",
        "longitude": "126.8423536",
        "homepage": "http://lib.gangseo.seoul.kr/",
        "closed": "마지막주 월요일(단, 마지막주를 제외한 매주 월요일은 2, 3층 휴관, 4층 개방) / 법정공휴일",
        "operatingTime": "평일 자료실 (화~금) - 09:00 ~ 22:00, 평일 일반열람실(화~금) -08:00~22:00, 주말자료실-09:00~22:00, 주말일반열람실-08:00~22:00, 매주월요일(일반열람실)-09:00~18:00",
        "BookCount": 77787
      }
    },
    {
      "lib": {
        "libCode": "111118",
        "libName": "강서구립우장산숲속도서관",
        "address": "서울특별시 강서구 우현로 34",
        "tel": "02-2696-6689",
        "fax": "02-2696-6692",
        "latitude": "37.5484267",
        "longitude": "126.8418183",
        "homepage": "http://lib.gangseo.seoul.kr/",
        "closed": "매주 월요일 / 일요일을 제외한 법정공휴일(단, 일요일과 법정공휴일이 겹칠 경우 휴관)",
        "operatingTime": "09:00 ~ 22:00",
        "BookCount": 49606
      }
    },
    {
      "lib": {
        "libCode": "111097",
        "libName": "강서구립푸른들청소년도서관",
        "address": "서울특별시 강서구 강서로45다길 71",
        "tel": "02-2691-1630",
        "fax": "02-2691-1632",
        "latitude": "37.544683",
        "longitude": "126.8351",
        "homepage": "http://lib.gangseo.seoul.kr/",
        "closed": "매주 월요일 / 일요일을 제외한 법정공휴일(단, 일요일과 법정공휴일이 겹칠 경우 휴관)",
        "operatingTime": "평일 09:00 ~18:00(야간22:00) / 토 09:00 ~17:00(야간22:00) /일 09:00~17:00",
        "BookCount": 74933
      }
    },
    {
      "lib": {
        "libCode": "111005",
        "libName": "강서도서관",
        "address": "서울특별시 강서구 등촌로51나길 29",
        "tel": "02-3219-7000",
        "fax": "02-3219-7091",
        "latitude": "37.5478818",
        "longitude": "126.859926",
        "homepage": "http://gslib.sen.go.kr/",
        "closed": "매월 첫째주, 셋째주 금요일 / 일요일을 제외한 법정공휴일, 휴관이 필요하다고 관장이 지정하는 날",
        "operatingTime": "07:00~23:00(하절기) 08:00~23:00(동절기) 07:00~22:00(하절기 주말) 08:00~22:00(동절기 주말)",
        "BookCount": 373430
      }
    },
    {
      "lib": {
        "libCode": "111373",
        "libName": "강서영어도서관",
        "address": "서울특별시 강서구 곰달래로57가길 26",
        "tel": "02-2061-2270",
        "fax": "02-2061-2276",
        "latitude": "37.5349763",
        "longitude": "126.8604366",
        "homepage": "http://lib.gangseo.seoul.kr/",
        "closed": "매주 월요일 / 일요일을 제외한 법정공휴일(단, 일요일과 법정공휴일이 겹칠 경우 휴관)",
        "operatingTime": "09:00~18:00",
        "BookCount": 40118
      }
    },
    {
      "lib": {
        "libCode": "11134706",
        "libName": "개포4동작은도서관",
        "address": "서울특별시 강남구 개포로38길 12",
        "tel": "02-3423-7884",
        "fax": "-",
        "latitude": "37.4787976",
        "longitude": "127.051507",
        "homepage": "http://gp4lib.gangnam.go.kr/",
        "closed": "매주 토요일, 일요일 / 법정공휴일",
        "operatingTime": "-",
        "BookCount": 9862
      }
    },
    {
      "lib": {
        "libCode": "111006",
        "libName": "개포도서관",
        "address": "서울특별시 강남구 선릉로4길 30",
        "tel": "02-3460-8200",
        "fax": "02-3462-1970",
        "latitude": "37.4829604",
        "longitude": "127.063769",
        "homepage": "http://gplib.sen.go.kr/",
        "closed": "매월 둘째주, 넷째주 목요일 / 일요일을 제외한 법정공휴일, 기타 도서관 필요에 의해 정하는 날",
        "operatingTime": "하(동)절기: 07(08)～23시, 자료실 평일(문헌정보실:9시～20시, 어린이실/디지털실:9시～18시) / 주말(9시～17시)",
        "BookCount": 415958
      }
    },
    {
      "lib": {
        "libCode": "111049",
        "libName": "거마도서관",
        "address": "서울특별시 송파구 거마로2길 19",
        "tel": "02-449-2332",
        "fax": "02-449-5932",
        "latitude": "37.4935096",
        "longitude": "127.1468394",
        "homepage": "https://www.splib.or.kr/spglib/",
        "closed": "매월 둘째주, 넷째주 월요일 / 법정공휴일(일요일 제외), 기타 도서관 사정에 의해 관장이 정한 날",
        "operatingTime": "평일 / 08:00~23:00 휴일 / 08:00~22:00",
        "BookCount": 58918
      }
    },
    {
      "lib": {
        "libCode": "148302",
        "libName": "거제시립수양도서관",
        "address": "경상남도 거제시 제산로5길 26",
        "tel": "055-639-3891",
        "fax": "055-639-3899",
        "latitude": "34.8877852",
        "longitude": "128.6462266",
        "homepage": "https://lib.geoje.go.kr",
        "closed": "매주 월요일 / 법정공휴일",
        "operatingTime": "09:00 ~ 18:00",
        "BookCount": 48277
      }
    },
    {
      "lib": {
        "libCode": "148089",
        "libName": "거제시립옥포도서관",
        "address": "경상남도 거제시 진목로 20",
        "tel": "055-639-3881",
        "fax": "055-639-3889",
        "latitude": "34.8970408",
        "longitude": "128.6875731",
        "homepage": "https://lib.geoje.go.kr",
        "closed": "매주 월요일 / 법정공휴일",
        "operatingTime": "09:00 ~ 18:00",
        "BookCount": 66178
      }
    },
    {
      "lib": {
        "libCode": "148033",
        "libName": "거제시립장승포도서관",
        "address": "경상남도 거제시 신부로 36",
        "tel": "055-639-3871",
        "fax": "055-639-3879",
        "latitude": "34.8699012",
        "longitude": "128.7313594",
        "homepage": "https://lib.geoje.go.kr",
        "closed": "매주 월요일 / 법정공휴일",
        "operatingTime": "09:00 ~ 18:00",
        "BookCount": 80321
      }
    },
    {
      "lib": {
        "libCode": "148184",
        "libName": "거제시립장평도서관",
        "address": "경상남도 거제시 장평3로 10",
        "tel": "055-639-3861",
        "fax": "055-639-3869",
        "latitude": "34.8892668",
        "longitude": "128.6094765",
        "homepage": "https://lib.geoje.go.kr",
        "closed": "매주 월요일 / 법정공휴일",
        "operatingTime": "09:00 ~ 18:00",
        "BookCount": 63362
      }
    },
    {
      "lib": {
        "libCode": "148307",
        "libName": "거제시립하청도서관",
        "address": "경상남도 거제시 하청면 하청로 12-7",
        "tel": "055-639-3921",
        "fax": "055-639-3822",
        "latitude": "34.9554532",
        "longitude": "128.6550841",
        "homepage": "https://lib.geoje.go.kr",
        "closed": "매주 월요일 / 법정공휴일",
        "operatingTime": "09:00 ~ 18:00",
        "BookCount": 31195
      }
    },
    {
      "lib": {
        "libCode": "148046",
        "libName": "거창군립한마음도서관",
        "address": "경상남도 거창군 거창읍 거열로6길 11",
        "tel": "055-940-8470",
        "fax": "055-940-8499",
        "latitude": "35.6891619",
        "longitude": "127.9037437",
        "homepage": "http://library.geochang.go.kr/",
        "closed": "매주 금요일 / 법정공휴일, 도서관 사유로 군수가 지정한 날, 기타 도서관 사정에 의한 휴관",
        "operatingTime": "-",
        "BookCount": 161935
      }
    },
    {
      "lib": {
        "libCode": "141004",
        "libName": "경기과천교육도서관",
        "address": "경기도 과천시 도서관길 36",
        "tel": "02-3677-0371",
        "fax": "02-504-7532",
        "latitude": "37.432262",
        "longitude": "126.9965747",
        "homepage": "http://www.kwalib.kr/",
        "closed": "매주 월요일 / 일요일을 제외한 관공서의 공휴일, 필요에 따라 관장이 지정한 날",
        "operatingTime": "06:00~22:00",
        "BookCount": 722177
      }
    },
    {
      "lib": {
        "libCode": "141005",
        "libName": "경기광주교육도서관",
        "address": "경기도 광주시 경안안길58번길 3",
        "tel": "031-768-6923",
        "fax": "031-768-6925",
        "latitude": "37.4108381",
        "longitude": "127.2552863",
        "homepage": "https://www.gjlib.or.kr",
        "closed": "매주 월요일 / 법정공휴일",
        "operatingTime": "평일 9:00~20:00 / 주말 9:00~17:00",
        "BookCount": 218880
      }
    },
    {
      "lib": {
        "libCode": "141006",
        "libName": "경기김포교육도서관",
        "address": "경기도 김포시 봉화로 68",
        "tel": "031-985-3536",
        "fax": "031-983-3536",
        "latitude": "37.6209475",
        "longitude": "126.7117185",
        "homepage": "https://www.gimpolib.or.kr",
        "closed": "매주 월요일 / 법정공휴일",
        "operatingTime": "평일 9:00~18:00 / 주말 9:00~17:00",
        "BookCount": 198347
      }
    },
    {
      "lib": {
        "libCode": "141008",
        "libName": "경기성남교육도서관",
        "address": "경기도 성남시 수정구 공원로370번길 26",
        "tel": "031-730-3500",
        "fax": "031-734-4395",
        "latitude": "37.2979705",
        "longitude": "127.0232861",
        "homepage": "http://www.snlib.or.kr",
        "closed": "매주 월요일 / 국가공휴일",
        "operatingTime": "06:00 ~ 22:00",
        "BookCount": 778891
      }
    },
    {
      "lib": {
        "libCode": "141012",
        "libName": "경기여주가남교육도서관",
        "address": "경기도 여주시 가남읍 태평2길 28-7",
        "tel": "031-882-1066",
        "fax": "031-886-2611",
        "latitude": "37.2041633",
        "longitude": "127.5461529",
        "homepage": "https://www.gnlib.or.kr",
        "closed": "매주 월요일 / 법정공휴일",
        "operatingTime": "평일 9:00~20:00 / 주말 9:00~17:00",
        "BookCount": 144965
      }
    },
    {
      "lib": {
        "libCode": "141106",
        "libName": "경기의정부교육도서관",
        "address": "경기도 의정부시 체육로 265-25",
        "tel": "031-836-9504",
        "fax": "031-836-9510",
        "latitude": "37.763362",
        "longitude": "127.036438",
        "homepage": "https://www.ujblib.or.kr",
        "closed": "매주 월요일 / 관공서의 공휴일에 관한 규정에서 정한 공휴일(다만, 일요일은 개관하되, 일요일과 다른 공휴일이 겹치는 경우에는 휴관)",
        "operatingTime": "주말: 9시~17시, 평일: 종합자료실-9시~20시, 어린이자료실-9시~18시",
        "BookCount": 193427
      }
    },
    {
      "lib": {
        "libCode": "141010",
        "libName": "경기중앙교육도서관",
        "address": "경기도 수원시 장안구 조원로 18",
        "tel": "031-240-4083",
        "fax": "031-245-3681",
        "latitude": "37.2979705",
        "longitude": "127.0232861",
        "homepage": "https://www.gglib.or.kr",
        "closed": "매주 월요일 / 법정공휴일",
        "operatingTime": "평일 9:00~20:00 / 주말 9:00~17:00",
        "BookCount": 778030
      }
    },
    {
      "lib": {
        "libCode": "141141",
        "libName": "경기평생교육학습관",
        "address": "경기도 수원시 권선구 권중로 55",
        "tel": "031-259-1028",
        "fax": "031-259-1079",
        "latitude": "37.2522357",
        "longitude": "127.0321226",
        "homepage": "http://www.gglec.go.kr/",
        "closed": "매주 월요일 / 관공서의 공휴일(단, 일요일은 개관하되 다른 공휴일과 겹치는 경우 휴관), 관장이 자료의 정리, 보수공사, 장서점검 및 기타의 사유로 휴관이 필요하다고 인정하는 날",
        "operatingTime": "평일 07:00~23:00, 토.일요일 07:00~22:00",
        "BookCount": 798038
      }
    },
    {
      "lib": {
        "libCode": "141009",
        "libName": "경기평택교육도서관",
        "address": "경기도 평택시 서정북로125번길 103",
        "tel": "031-663-4207",
        "fax": "031-667-6548",
        "latitude": "37.0730819",
        "longitude": "127.0626649",
        "homepage": "https://www.ptlib.or.kr",
        "closed": "매주 월요일 / 법정공휴일",
        "operatingTime": "평일 9:00~20:00 / 주말 9:00~17:00",
        "BookCount": 272217
      }
    },
    {
      "lib": {
        "libCode": "141017",
        "libName": "경기포천교육도서관",
        "address": "경기도 포천시 중앙로 92-6",
        "tel": "031-531-8752",
        "fax": "031-531-8754",
        "latitude": "37.8944791",
        "longitude": "127.2018087",
        "homepage": "https://www.pclib.or.kr",
        "closed": "매주 월요일 / 법정공휴일",
        "operatingTime": "평일 9:00~19:00 / 주말 9:00~17:00",
        "BookCount": 212274
      }
    },
    {
      "lib": {
        "libCode": "147001",
        "libName": "경산시립도서관",
        "address": "경상북도 경산시 하양읍 문화로10길 15",
        "tel": "053-853-8659",
        "fax": "053-853-8660",
        "latitude": "35.9132142",
        "longitude": "128.8129935",
        "homepage": "http://lib.gbgs.go.kr/",
        "closed": "매월 둘째주, 넷째주 월요일 / 국경일 및 정부에서 지정한 공휴일, 장서점검 등 필요한 사유 발생시 임시휴관",
        "operatingTime": "08:00~22:00",
        "BookCount": 166723
      }
    },
    {
      "lib": {
        "libCode": "147165",
        "libName": "경산시립장산도서관",
        "address": "경상북도 경산시 경산로 13길 7",
        "tel": "053-816-2240",
        "fax": "-",
        "latitude": "35.8142997",
        "longitude": "128.7311778",
        "homepage": "https://lib.gbgs.go.kr/",
        "closed": "매주 화요일 / 국경일, 공휴일, 기타 장서점검 등 필요한 사유가 발생시 임시휴관",
        "operatingTime": "09:00~19:00",
        "BookCount": 124581
      }
    },
    {
      "lib": {
        "libCode": "144055",
        "libName": "고대웃음꽃 작은도서관",
        "address": "충청남도 당진시 고대면 고대로 65, 2층",
        "tel": "041-350-4952",
        "fax": "041-360-6919",
        "latitude": "36.9364382",
        "longitude": "126.59208",
        "homepage": "http://www.dangjin.go.kr/lib.do",
        "closed": "매주 월요일, 일요일",
        "operatingTime": "동절기 09:00~18:00, 하절기 10:00~19:00",
        "BookCount": 19800
      }
    },
    {
      "lib": {
        "libCode": "111007",
        "libName": "고덕평생학습관",
        "address": "서울특별시 강동구 고덕로 295",
        "tel": "02-6902-2600",
        "fax": "02-6902-2680",
        "latitude": "37.5561464",
        "longitude": "127.157984",
        "homepage": "http://gdllc.sen.go.kr/",
        "closed": "매월 둘째주, 넷째주 월요일 / 일요일을 제외한 법정공휴일, 평생학습관 사정으로 인한 임시휴관일",
        "operatingTime": "07:00~23:00(3월~10월),08:00~23:00(11월~2월)",
        "BookCount": 328539
      }
    },
    {
      "lib": {
        "libCode": "141183",
        "libName": "고리울꿈터작은도서관",
        "address": "경기도 부천시 고강로72번길 8",
        "tel": "032-625-4744",
        "fax": "-",
        "latitude": "37.52938",
        "longitude": "126.81199",
        "homepage": "http://bcsl.go.kr/",
        "closed": "매주 토요일, 일요일 / 법정공휴일",
        "operatingTime": "-",
        "BookCount": 23257
      }
    },
    {
      "lib": {
        "libCode": "144111",
        "libName": "고북작은도서관",
        "address": "충청남도 서산시 고북면 고북1로 294",
        "tel": "070-8668-0880",
        "fax": "-",
        "latitude": "36.667254",
        "longitude": "126.533492",
        "homepage": "http://www.seosan.go.kr/citylib/index.do",
        "closed": "매주 월요일, 일요일 / 국경일, 임시공휴일",
        "operatingTime": "-",
        "BookCount": 22710
      }
    },
    {
      "lib": {
        "libCode": "142003",
        "libName": "고성교육도서관",
        "address": "강원도 고성군 거진읍 거탄진로29번길 7",
        "tel": "033-682-4886",
        "fax": "033-682-5204",
        "latitude": "38.4392611",
        "longitude": "128.4500889",
        "homepage": "http://lib.gwe.go.kr/gosung/",
        "closed": "매주 월요일 / 법정공휴일(단, 일요일은 개관하되 다른 공휴일이 일요일과 겹칠때는 휴관), 장서점검, 시설보수 등 도서관장이 필요하다고 인정하는 날",
        "operatingTime": "09:00 ~ 19:00(토/일 18:00)",
        "BookCount": 115564
      }
    },
    {
      "lib": {
        "libCode": "141139",
        "libName": "고양시립대화도서관",
        "address": "경기도 고양시 일산서구 일산로 689",
        "tel": "031-8075-9130",
        "fax": "031-911-4276",
        "latitude": "37.6809678",
        "longitude": "126.753923",
        "homepage": "http://www.goyanglib.or.kr/dae/",
        "closed": "매월 첫째주, 셋째주 월요일 / 일요일을 제외한 법정공휴일(단, 일요일과 법정공휴일이 겹친 경우 휴관)",
        "operatingTime": "열람실 07:00~23:00 / 자료실 월~금 09:00~22:00, 토일 09:00~18:00",
        "BookCount": 177596
      }
    },
    {
      "lib": {
        "libCode": "141398",
        "libName": "고양시립덕이도서관",
        "address": "경기도 고양시 일산서구 하이파크로 128",
        "tel": "031-8075-9320",
        "fax": "031-911-2936",
        "latitude": "37.7029746",
        "longitude": "126.754531",
        "homepage": "http://www.goyanglib.or.kr/duk/",
        "closed": "매월 첫째주, 셋째주 월요일 / 일요일을 제외한 법정공휴일(단, 일요일과 법정공휴일이 겹친 경우 휴관)",
        "operatingTime": "07:00~23:00(3월~10월), 08:00~23:00(동절기)",
        "BookCount": 82014
      }
    },
    {
      "lib": {
        "libCode": "141055",
        "libName": "고양시립마두도서관",
        "address": "경기도 고양시 일산동구 일산로 355",
        "tel": "031-8075-9067",
        "fax": "031-901-5894",
        "latitude": "37.6664887",
        "longitude": "126.782103",
        "homepage": "http://www.goyanglib.or.kr/madu/",
        "closed": "임시휴관 (2020.5.1.~2021.4.) / 마두도서관 노후시설 교체 및 내부 리모델링 공사중 / 2021년 4월중 재개관 예정(자세한 일정은 고양시도서관홈페이지에 공지)",
        "operatingTime": "-",
        "BookCount": 232848
      }
    },
    {
      "lib": {
        "libCode": "141073",
        "libName": "고양시립백석도서관",
        "address": "경기도 고양시 일산동구 일산로 118",
        "tel": "031-8075-9090",
        "fax": "031-901-4621",
        "latitude": "37.6472487",
        "longitude": "126.793775",
        "homepage": "http://www.goyanglib.or.kr/baek/",
        "closed": "매월 첫째주, 셋째주 월요일 / 일요일을 제외한 법정공휴일(단, 일요일과 법정공휴일이 겹친 경우 휴관)",
        "operatingTime": "07:00 ~ 23:00(3월~10월), 08:00 ~ 23:00(11월~2월)",
        "BookCount": 194794
      }
    },
    {
      "lib": {
        "libCode": "141555",
        "libName": "고양시립삼송도서관",
        "address": "경기도 고양시 덕양구 덕수천1로 73",
        "tel": "031-8075-9360",
        "fax": "02-381-4590",
        "latitude": "37.6488432",
        "longitude": "126.884639",
        "homepage": "http://www.goyanglib.or.kr/sam/",
        "closed": "매월 첫째주, 셋째주 월요일 / 일요일을 제외한 법정공휴일(단, 일요일과 법정공휴일이 겹친 경우 휴관)",
        "operatingTime": "-",
        "BookCount": 60004
      }
    },
    {
      "lib": {
        "libCode": "141388",
        "libName": "고양시립식사도서관",
        "address": "경기도 고양시 일산동구 위시티2로 43-6",
        "tel": "031-8075-9190",
        "fax": "031-965-5297",
        "latitude": "37.6760845",
        "longitude": "126.815918",
        "homepage": "http://www.goyanglib.or.kr/sik/",
        "closed": "매월 둘째주, 넷째주 월요일 / 일요일을 제외한 법정공휴일(단, 일요일과 법정공휴일이 겹친 경우 휴관)",
        "operatingTime": "어린이자료실/연속간행물실: 09:00~18:00, 종합자료실/디지털자료실: 평일09:00~22:00 토·일요일09:00~18:00, 열람실-(하절기:3월~10월)07:00~23:00 (동절기:11월~2월)08:00~23:00",
        "BookCount": 88261
      }
    },
    {
      "lib": {
        "libCode": "141546",
        "libName": "고양시립신원도서관",
        "address": "경기도 고양시 덕양구 신원2로 24",
        "tel": "031-8075-9340",
        "fax": "02-371-1380",
        "latitude": "37.6663747",
        "longitude": "126.886347",
        "homepage": "http://www.goyanglib.or.kr/sin/",
        "closed": "매월 둘째주, 넷째주 월요일 / 일요일을 제외한 법정공휴일(단, 일요일과 법정공휴일이 겹친 경우 휴관)",
        "operatingTime": "-",
        "BookCount": 71838
      }
    },
    {
      "lib": {
        "libCode": "141123",
        "libName": "고양시립아람누리도서관",
        "address": "경기도 고양시 일산동구 중앙로 1286",
        "tel": "031-8075-9038",
        "fax": "031-901-0294",
        "latitude": "37.6615541",
        "longitude": "126.7745",
        "homepage": "http://www.goyanglib.or.kr/aram/",
        "closed": "매월 첫째주, 셋째주 월요일 / 일요일을 제외한 법정공휴일(단, 일요일과 법정공휴일이 겹친 경우 휴관)",
        "operatingTime": "평일 ( 09:00 ~ 22:00 ) / 주말 ( 09:00 ~ 18:00 )",
        "BookCount": 226465
      }
    },
    {
      "lib": {
        "libCode": "141059",
        "libName": "고양시립원당도서관",
        "address": "경기도 고양시 덕양구 호국로790번길 49-9",
        "tel": "031-8075-9260",
        "fax": "031-965-9709",
        "latitude": "37.6562321",
        "longitude": "126.838837",
        "homepage": "http://www.goyanglib.or.kr/won/",
        "closed": "매월 첫째주, 셋째주 월요일 / 일요일을 제외한 법정공휴일(단, 일요일과 법정공휴일이 겹친 경우 휴관)",
        "operatingTime": "-",
        "BookCount": 160829
      }
    },
    {
      "lib": {
        "libCode": "141124",
        "libName": "고양시립주엽어린이도서관",
        "address": "경기도 고양시 일산서구 주엽로 104",
        "tel": "031-8075-9170",
        "fax": "031-911-3218",
        "latitude": "37.6684857",
        "longitude": "126.756534",
        "homepage": "http://www.goyanglib.or.kr/juc/",
        "closed": "매월 둘째주, 넷째주 월요일 / 일요일을 제외한 법정공휴일(단, 일요일과 법정공휴일이 겹친 경우 휴관)",
        "operatingTime": "9:00~18:00",
        "BookCount": 156942
      }
    },
    {
      "lib": {
        "libCode": "141150",
        "libName": "고양시립풍동도서관",
        "address": "경기도 고양시 일산동구 숲속마을로 108",
        "tel": "031-8075-9148",
        "fax": "031-901-8317",
        "latitude": "37.6705562",
        "longitude": "126.795196",
        "homepage": "http://www.goyanglib.or.kr/pung/",
        "closed": "매월 첫째주, 셋째주 월요일 / 일요일을 제외한 법정공휴일(단, 일요일과 법정공휴일이 겹친 경우 휴관)",
        "operatingTime": "평일 오전 09:00~22:00 / 주말 09:00~18:00",
        "BookCount": 125341
      }
    },
    {
      "lib": {
        "libCode": "141140",
        "libName": "고양시립한뫼도서관",
        "address": "경기도 고양시 일산서구 탄중로 284",
        "tel": "031-8075-9115",
        "fax": "031-975-1952",
        "latitude": "37.6935842",
        "longitude": "126.776286",
        "homepage": "http://www.goyanglib.or.kr/han/",
        "closed": "매월 둘째주, 넷째주 월요일 / 일요일을 제외한 법정공휴일(단, 일요일과 법정공휴일이 겹친 경우 휴관)",
        "operatingTime": "열람실 : 07:00(동절기 08:00), 자료실 : 09:00",
        "BookCount": 173447
      }
    },
    {
      "lib": {
        "libCode": "141018",
        "libName": "고양시립행신도서관",
        "address": "경기도 고양시 덕양구 행당로33번길 25-6",
        "tel": "031-8075-9240",
        "fax": "031-938-4673",
        "latitude": "37.6207524",
        "longitude": "126.828326",
        "homepage": "http://www.goyanglib.or.kr/hang/",
        "closed": "매월 첫째주, 셋째주 월요일 / 일요일을 제외한 법정공휴일(단, 일요일과 법정공휴일이 겹친 경우 휴관)",
        "operatingTime": "07:00~23:00",
        "BookCount": 201833
      }
    },
    {
      "lib": {
        "libCode": "141126",
        "libName": "고양시립행신어린이도서관",
        "address": "경기도 고양시 덕양구 소원로181번길 42",
        "tel": "031-8075-9278",
        "fax": "031-938-2395",
        "latitude": "37.6147771",
        "longitude": "126.843475",
        "homepage": "http://www.goyanglib.or.kr/hangc/",
        "closed": "매월 둘째주, 넷째주 월요일 / 일요일을 제외한 법정공휴일(단, 일요일과 법정공휴일이 겹친 경우 휴관)",
        "operatingTime": "09:00~18:00",
        "BookCount": 133320
      }
    },
    {
      "lib": {
        "libCode": "141072",
        "libName": "고양시립화정도서관",
        "address": "경기도 고양시 덕양구 은빛로77번길 8",
        "tel": "031-8075-9215",
        "fax": "031-965-5093",
        "latitude": "37.637831",
        "longitude": "126.837192",
        "homepage": "http://www.goyanglib.or.kr/hwa/",
        "closed": "매월 둘째주, 넷째주 월요일 / 일요일을 제외한 법정공휴일(단, 일요일과 법정공휴일이 겹친 경우 휴관)",
        "operatingTime": "자료실 월~금 09:00~22:00, 토일 09:00~18:00",
        "BookCount": 263207
      }
    },
    {
      "lib": {
        "libCode": "141125",
        "libName": "고양시립화정어린이도서관",
        "address": "경기도 고양시 덕양구 화신로 323",
        "tel": "031-8075-9299",
        "fax": "031-938-2394",
        "latitude": "37.6328887",
        "longitude": "126.826242",
        "homepage": "http://www.goyanglib.or.kr/hwac/",
        "closed": "매월 첫째주, 셋째주 월요일 / 일요일을 제외한 법정공휴일(단, 일요일과 법정공휴일이 겹친 경우 휴관)",
        "operatingTime": "09:00 ~ 18:00",
        "BookCount": 132341
      }
    },
    {
      "lib": {
        "libCode": "111008",
        "libName": "고척도서관",
        "address": "서울특별시 구로구 고척로45길 31",
        "tel": "02-2615-0524",
        "fax": "02-2682-4176",
        "latitude": "37.5053516",
        "longitude": "126.853254",
        "homepage": "http://gclib.sen.go.kr/",
        "closed": "매월 둘째주, 넷째주 수요일 / 일요일을 제외한 법정공휴일, 기타 도서관장이 정하는 임시휴관일",
        "operatingTime": "평일 : 09:00~20:00, 주말 : 09:00~17:00 (장시간 개관 자료실 기준)",
        "BookCount": 311389
      }
    },
    {
      "lib": {
        "libCode": "141591",
        "libName": "고촌도서관",
        "address": "경기도 김포시 고촌읍 장차로 14",
        "tel": "031-5186-4850",
        "fax": "031-981-6910",
        "latitude": "37.6032053",
        "longitude": "126.7711481",
        "homepage": "http://www.gimpo.go.kr/lib/index.do",
        "closed": "매주 금요일 / 일요일을 제외한 법정공휴일",
        "operatingTime": "평일 09:00~22:00, 주말 09:00~17:00",
        "BookCount": 75837
      }
    },
    {
      "lib": {
        "libCode": "146002",
        "libName": "고흥평생교육관",
        "address": "전라남도 고흥군 고흥읍 고흥로 1647-13",
        "tel": "061-830-2585",
        "fax": "061-834-3594",
        "latitude": "34.6018554",
        "longitude": "127.2775802",
        "homepage": "http://ghlife.jne.go.kr/",
        "closed": "매월 둘째주, 넷째주 월요일 / 법정 공휴일, 특별한 사유로 관장이 지정한 날",
        "operatingTime": "평일 09:00~19:00, 주말 09:00~17:00",
        "BookCount": 152664
      }
    },
    {
      "lib": {
        "libCode": "146003",
        "libName": "곡성교육문화회관",
        "address": "전라남도 곡성군 곡성읍 읍내7길 29",
        "tel": "061-362-0671",
        "fax": "061-363-1318",
        "latitude": "35.2821509",
        "longitude": "127.2897463",
        "homepage": "http://gslib.jne.go.kr/",
        "closed": "매주 월요일 / 법정 공휴일, 특별한 사유로 관장이 지정한 날",
        "operatingTime": "열람실 07:30~22:00. 자료실 평일 09:00~19:00/주말 09:00~17:00",
        "BookCount": 104295
      }
    },
    {
      "lib": {
        "libCode": "111045",
        "libName": "관악중앙도서관",
        "address": "서울특별시 관악구 신림로3길 35",
        "tel": "02-828-5700",
        "fax": "02-828-5810",
        "latitude": "37.4671252",
        "longitude": "126.9448168",
        "homepage": "http://lib.gwanak.go.kr/",
        "closed": "매주 화요일 / 국가공휴일(단, 일요일과 법정공휴일이 겹칠 경우 휴관), 도서관 사정으로 휴관하는 날",
        "operatingTime": "7시~23시(평일), 7시~22시(주말)",
        "BookCount": 278956
      }
    },
    {
      "lib": {
        "libCode": "130023",
        "libName": "관평도서관",
        "address": "대전광역시 유성구 테크노4로 131",
        "tel": "042-716-0350",
        "fax": "042-716-0359",
        "latitude": "36.4262899",
        "longitude": "127.3897975",
        "homepage": "http://www.gplib.or.kr/",
        "closed": "매주 월요일 / 국경일, 정부에서 정한 공휴일, 도서관 사정으로 휴관하는 날",
        "operatingTime": "(자료실)오전9시~오후10시, (열람실)오전8시~오후10시(11~2월)  오전7시~오후10시(3~10월)",
        "BookCount": 41167
      }
    },
    {
      "lib": {
        "libCode": "741089",
        "libName": "광남작은도서관",
        "address": "경기도 광주시 회안대로 350-17",
        "tel": "031-760-8745",
        "fax": "031-760-1435",
        "latitude": "37.3855352",
        "longitude": "127.2365257",
        "homepage": "https://lib.gjcity.go.kr/slib",
        "closed": "매주 일요일 / 법정공휴일",
        "operatingTime": "화~일(주6일) 09:00~21:00(평일) 09:00~18:00(토, 일)",
        "BookCount": 20981
      }
    },
    {
      "lib": {
        "libCode": "141080",
        "libName": "광명시광명도서관",
        "address": "경기도 광명시 원광명안로 48",
        "tel": "02-2680-6541",
        "fax": "02-2680-6531",
        "latitude": "37.4653018",
        "longitude": "126.8513075",
        "homepage": "https://gmlib.gm.go.kr/JoongangMain.do",
        "closed": "매주 금요일 / 법정공휴일, 도서관 사정으로 임시로 정하는 휴일",
        "operatingTime": "-",
        "BookCount": 442092
      }
    },
    {
      "lib": {
        "libCode": "141561",
        "libName": "광명시소하도서관",
        "address": "경기도 광명시 소하일로 7",
        "tel": "02-2680-0900",
        "fax": "02-2680-0919",
        "latitude": "37.4454883",
        "longitude": "126.8880089",
        "homepage": "https://gmlib.gm.go.kr/SohaMain.do",
        "closed": "매주 월요일 / 법정공휴일, 도서관 사정으로 임시로 정하는 휴일",
        "operatingTime": "자료실 화~금 9:00~22:00, 토일 9:00~17:00",
        "BookCount": 159745
      }
    },
    {
      "lib": {
        "libCode": "141405",
        "libName": "광명시철산도서관",
        "address": "경기도 광명시 철산로 56",
        "tel": "02-2680-6820",
        "fax": "02-2680-6826",
        "latitude": "37.4769575",
        "longitude": "126.8723412",
        "homepage": "https://gmlib.gm.go.kr/CheolsanMain.do",
        "closed": "매주 월요일 / 법정공휴일, 도서관 사정으로 임시로 정하는 휴일",
        "operatingTime": "-",
        "BookCount": 207828
      }
    },
    {
      "lib": {
        "libCode": "141155",
        "libName": "광명시충현도서관",
        "address": "경기도 광명시 충현로42번길 19",
        "tel": "02-2680-6111",
        "fax": "02-2680-6113",
        "latitude": "37.4340114",
        "longitude": "126.8847294",
        "homepage": "https://gmlib.gm.go.kr/ChunghyunMain.do",
        "closed": "매주 금요일 / 법정공휴일, 도서관 사정으로 임시로 정하는 휴일",
        "operatingTime": "-",
        "BookCount": 124907
      }
    },
    {
      "lib": {
        "libCode": "141019",
        "libName": "광명시하안도서관",
        "address": "경기도 광명시 철망산로 46",
        "tel": "02-2680-2871",
        "fax": "02-2680-2877",
        "latitude": "37.4676204",
        "longitude": "126.8735159",
        "homepage": "https://gmlib.gm.go.kr/HaanMain.do",
        "closed": "매주 금요일 / 법정공휴일(공휴일과 일요일이 겹칠 경우 휴관), 도서관 사정으로 임시로 정하는 휴일",
        "operatingTime": "07:00~23:00",
        "BookCount": 544705
      }
    },
    {
      "lib": {
        "libCode": "129001",
        "libName": "광산구립신가도서관",
        "address": "광주광역시 광산구 신가로40번길 24",
        "tel": "062-960-8514",
        "fax": "062-960-8307",
        "latitude": "35.1827519",
        "longitude": "126.8285849",
        "homepage": "http://lib.gwangsan.go.kr",
        "closed": "매월 첫째주, 셋째주 월요일 / 법정공휴일",
        "operatingTime": "(평일) 09:00~18:00 (주말) 09:00~17:00",
        "BookCount": 87469
      }
    },
    {
      "lib": {
        "libCode": "129005",
        "libName": "광산구립운남어린이도서관",
        "address": "광주광역시 광산구 목련로217번길 10",
        "tel": "062-960-8302",
        "fax": "062-960-8309",
        "latitude": "35.1730207",
        "longitude": "126.8219798",
        "homepage": "http://lib.gwangsan.go.kr",
        "closed": "매월 둘째주, 넷째주 월요일 / 법정공휴일",
        "operatingTime": "(평일) 09:00~18:00 (주말) 09:00~17:00",
        "BookCount": 66682
      }
    },
    {
      "lib": {
        "libCode": "129223",
        "libName": "광산구립이야기꽃도서관",
        "address": "광주광역시 광산구 선운중앙로67번길 6",
        "tel": "062-960-6818",
        "fax": "062-960-3764",
        "latitude": "35.1484289",
        "longitude": "126.7798985",
        "homepage": "http://lib.gwangsan.go.kr",
        "closed": "매월 둘째주, 넷째주 월요일 / 법정공휴일",
        "operatingTime": "(평일) 09:00~18:00 (주말) 09:00~17:00",
        "BookCount": 49638
      }
    },
    {
      "lib": {
        "libCode": "129190",
        "libName": "광산구립장덕도서관",
        "address": "광주광역시 광산구 풍영로 179",
        "tel": "062-960-3997",
        "fax": "062-960-3969",
        "latitude": "35.1910934",
        "longitude": "126.8140936",
        "homepage": "http://lib.gwangsan.go.kr",
        "closed": "매월 첫째주, 셋째주 월요일 / 법정공휴일",
        "operatingTime": "(평일) 09:00~18:00 (주말) 09:00~17:00",
        "BookCount": 70728
      }
    },
    {
      "lib": {
        "libCode": "129002",
        "libName": "광산구립첨단도서관",
        "address": "광주광역시 광산구 임방울대로 673-12",
        "tel": "062-960-8667",
        "fax": "062-974-0760",
        "latitude": "35.2167923",
        "longitude": "126.832239",
        "homepage": "http://lib.gwangsan.go.kr",
        "closed": "매월 둘째주, 넷째주 월요일 / 법정공휴일",
        "operatingTime": "(평일) 09:00~18:00 (주말) 09:00~17:00",
        "BookCount": 74451
      }
    },
    {
      "lib": {
        "libCode": "146025",
        "libName": "광양공공도서관",
        "address": "전라남도 광양시 중마로 262",
        "tel": "061-797-5300",
        "fax": "061-791-8781",
        "latitude": "34.9437478",
        "longitude": "127.6934705",
        "homepage": "http://gylib.jne.go.kr/",
        "closed": "매주 월요일 / 일요일이 아닌 관공서의 공휴일, 특별한 사유로 관장이 지정한 날",
        "operatingTime": "08:00~ 22:00",
        "BookCount": 125728
      }
    },
    {
      "lib": {
        "libCode": "146049",
        "libName": "광양용강도서관",
        "address": "전라남도 광양시 광양읍 기두5길 5",
        "tel": "061-797-3869",
        "fax": "061-797-4154",
        "latitude": "34.9741298",
        "longitude": "127.607381",
        "homepage": "http://lib.gwangyang.go.kr",
        "closed": "매월 세번째 금요일 / 일요일을 제외한 법정공휴일",
        "operatingTime": "자료실 월~금 09:00~22:00 / 토~일 09:00~17:00",
        "BookCount": 41057
      }
    },
    {
      "lib": {
        "libCode": "146050",
        "libName": "광양중마도서관",
        "address": "전라남도 광양시 광장로 14",
        "tel": "061-797-2430",
        "fax": "061-797-4154",
        "latitude": "34.9374495",
        "longitude": "127.6905967",
        "homepage": "http://lib.gwangyang.go.kr",
        "closed": "매월 네번째 금요일 / 일요일을 제외한 법정공휴일",
        "operatingTime": "자료실 월~금 09:00~22:00 / 토~일 09:00~17:00 / 열람실 08:00~22:00",
        "BookCount": 166730
      }
    },
    {
      "lib": {
        "libCode": "146024",
        "libName": "광양중앙도서관",
        "address": "전라남도 광양시 광양읍 향교길 9-30",
        "tel": "061-797-2530",
        "fax": "061-797-4154",
        "latitude": "34.9802034",
        "longitude": "127.5875486",
        "homepage": "http://lib.gwangyang.go.kr",
        "closed": "매월 두번째 금요일 / 일요일을 제외한 법정공휴일",
        "operatingTime": "자료실 월~금 09:00~22:00 / 토~일 09:00~17:00 / 열람실 8:00~22:00",
        "BookCount": 306973
      }
    },
    {
      "lib": {
        "libCode": "146042",
        "libName": "광양평생교육관",
        "address": "전라남도 광양시 안산길 23",
        "tel": "061-815-1611",
        "fax": "061-815-1670",
        "latitude": "34.9617375",
        "longitude": "127.7175337",
        "homepage": "http://gylife.jne.go.kr/",
        "closed": "매주 월요일 / 국경일, 설, 추석 연휴 등, 관장이 교육관 형편에 의하여 필요하다고 인정하는 날",
        "operatingTime": "09:00~22:00",
        "BookCount": 134629
      }
    },
    {
      "lib": {
        "libCode": "146177",
        "libName": "광양희망도서관",
        "address": "전라남도 광양시 광양읍 인덕로 1022",
        "tel": "061-797-4700",
        "fax": "061-797-4154",
        "latitude": "34.9751297",
        "longitude": "127.5805497",
        "homepage": "http://lib.gwangyang.go.kr",
        "closed": "매월 첫번째, 세번째 금요일 / 일요일을 제외한 법정 공휴일",
        "operatingTime": "자료실 월~금 09:00~22:00 / 토~일 09:00~17:00",
        "BookCount": 52583
      }
    },
    {
      "lib": {
        "libCode": "129131",
        "libName": "광주 북구 운암도서관",
        "address": "광주광역시 북구 북문대로 118",
        "tel": "062-410-6957",
        "fax": "062-510-1587",
        "latitude": "35.1801822",
        "longitude": "126.8753206",
        "homepage": "https://lib.bukgu.gwangju.kr",
        "closed": "매월 둘째주, 넷째주 월요일 / 법정공휴일, 기타 도서관 필요에 의해 정하는 날",
        "operatingTime": "종합자료실,어린이실-9:00~18:00(토,일요일-17:00)/학습실-08:00~22:00",
        "BookCount": 101374
      }
    },
    {
      "lib": {
        "libCode": "124010",
        "libName": "광주 북구 일곡도서관",
        "address": "광주광역시 북구 일곡로 55",
        "tel": "062-410-6889",
        "fax": "062-410-8294",
        "latitude": "35.2087616",
        "longitude": "126.895006",
        "homepage": "https://lib.bukgu.gwangju.kr",
        "closed": "매월 첫째주, 셋째주 월요일 / 법정공휴일, 기타 도서관 필요에 의해 정하는 날",
        "operatingTime": "자료실 평일09:00~ 18:00, 주말 09:00~17:00, 열람실 07:00~22:00",
        "BookCount": 191301
      }
    },
    {
      "lib": {
        "libCode": "124009",
        "libName": "광주 서구 공공도서관",
        "address": "광주광역시 서구 마재로 3",
        "tel": "062-654-4306",
        "fax": "062-654-4310",
        "latitude": "35.1308667",
        "longitude": "126.8603824",
        "homepage": "https://www.seogu.gwangju.kr/library/",
        "closed": "매월 첫째주, 셋째주 월요일 / 일요일을 제외한 법정공휴일",
        "operatingTime": "종합자료실 평일 9:00~18:00 / 주말 9:00~17:00, 어린이자료실 평일 9:00~18:00 / 주말 9:00~17:00",
        "BookCount": 81371
      }
    },
    {
      "lib": {
        "libCode": "129222",
        "libName": "광주 서구 상록도서관",
        "address": "광주광역시 서구 상무대로1171번길 11",
        "tel": "062-350-4580",
        "fax": "062-351-6200",
        "latitude": "35.1551865",
        "longitude": "126.8889039",
        "homepage": "https://www.seogu.gwangju.kr/library/",
        "closed": "매월 둘째주, 넷째주 월요일 / 일요일을 제외한 법정공휴일",
        "operatingTime": "자료실 매일 9:00~22:00, 어린이열람실 매일 9:00~18:00",
        "BookCount": 57034
      }
    },
    {
      "lib": {
        "libCode": "129004",
        "libName": "광주 서구 어린이생태학습도서관",
        "address": "광주광역시 서구 풍암공원로 8",
        "tel": "062-350-4584",
        "fax": "062-652-9247",
        "latitude": "35.1297987",
        "longitude": "126.8818583",
        "homepage": "https://www.seogu.gwangju.kr/library/",
        "closed": "매월 두번째, 네번째 월요일 / 일요일을 제외한 법정공휴일",
        "operatingTime": "월~금 09:00 ~ 18:00 토,일 09:00 ~ 17:00",
        "BookCount": 78742
      }
    },
    {
      "lib": {
        "libCode": "124003",
        "libName": "광주광역시립무등도서관",
        "address": "광주광역시 북구 면앙로 130",
        "tel": "062-613-7753",
        "fax": "062-613-7709",
        "latitude": "35.1765283",
        "longitude": "126.9253482",
        "homepage": "http://www.citylib.gwangju.kr/main/library_02.php",
        "closed": "매월 둘째주, 넷째주 월요일 / 관공서 공휴일, 도서관 사정으로 관장이 지정한 날",
        "operatingTime": "자료실 09:00 - 22:00(주말 17:00) /기타자료실 09:00 - 18:00(주말 17:00)",
        "BookCount": 583128
      }
    },
    {
      "lib": {
        "libCode": "124004",
        "libName": "광주광역시립사직도서관",
        "address": "광주광역시 남구 제중로 56",
        "tel": "062-613-7783",
        "fax": "062-613-7769",
        "latitude": "35.1395202",
        "longitude": "126.9139332",
        "homepage": "http://www.citylib.gwangju.kr/main/library_03.php",
        "closed": "매월 첫째주, 셋째주 월요일 / 관공서 공휴일, 도서관 사정으로 관장이 지정한 날",
        "operatingTime": "자료실 09:00 - 22:00(주말 17:00) /기타자료실 09:00 - 18:00(주말 17:00)/열람실 07:00 - 22:00",
        "BookCount": 353097
      }
    },
    {
      "lib": {
        "libCode": "124008",
        "libName": "광주광역시립산수도서관",
        "address": "광주광역시 동구 경양로 355",
        "tel": "062-613-7831",
        "fax": "062-613-7809",
        "latitude": "35.1543981",
        "longitude": "126.9284698",
        "homepage": "http://www.citylib.gwangju.kr/main/library_04.php",
        "closed": "매월 첫째주, 셋째주 월요일 / 관공서 공휴일, 도서관 사정으로 관장이 지정한 날",
        "operatingTime": "자료실(평일 : 09:00~22:00, 주말 09:00~17:00) 기타자료실(평일 : 09:00~18:00,주말 : 09:00~17:00)",
        "BookCount": 272354
      }
    },
    {
      "lib": {
        "libCode": "124012",
        "libName": "광주남구문화정보도서관",
        "address": "광주광역시 남구 봉선로 208",
        "tel": "062-607-2524",
        "fax": "062-654-8962",
        "latitude": "35.1220332",
        "longitude": "126.9175553",
        "homepage": "http://lib.namgu.gwangju.kr/",
        "closed": "매월 둘째주, 넷째주 월요일 / 관공서 공휴일(공휴일이 토요일, 일요일과 겹칠 경우 휴관), 도서관 사정으로 관장이 지정한 날",
        "operatingTime": "자료실(평일) : 09:00~18:00, 자료실(주말) : 09:00~17:00, 열람실(동절기) : 08:00~22:00, 열람실(하절기) : 07:00~22:00",
        "BookCount": 121811
      }
    },
    {
      "lib": {
        "libCode": "129219",
        "libName": "광주남구푸른길도서관",
        "address": "광주광역시 남구 금당로 140",
        "tel": "062-607-2531",
        "fax": "062-651-7640",
        "latitude": "35.1292558",
        "longitude": "126.8951485",
        "homepage": "http://lib.namgu.gwangju.kr/",
        "closed": "매주 월요일 / 관공서 공휴일(공휴일이 토요일, 일요일과 겹칠 경우 휴관), 도서관 사정으로 관장이 지정한 날",
        "operatingTime": "평일 : 오전9시~오후6시 / 주말 : 오전9시~오후5시",
        "BookCount": 72459
      }
    },
    {
      "lib": {
        "libCode": "141235",
        "libName": "광주시립곤지암도서관",
        "address": "경기도 광주시 곤지암읍 곤지암로11번길 47",
        "tel": "031-760-5666",
        "fax": "031-760-1435",
        "latitude": "37.3489171",
        "longitude": "127.3410147",
        "homepage": "https://lib.gjcity.go.kr/gj",
        "closed": "매주 월요일 / 법정공휴일",
        "operatingTime": "열람실(08시~23시/휴관일 09시~18시), 문헌자료실(09시~22시,토·일 09시~18시)",
        "BookCount": 117028
      }
    },
    {
      "lib": {
        "libCode": "141576",
        "libName": "광주시립능평도서관",
        "address": "경기도 광주시 오포읍 창뜰아랫길 6",
        "tel": "031-760-5912",
        "fax": "031-760-1435",
        "latitude": "37.3496999",
        "longitude": "127.1671923",
        "homepage": "https://lib.gjcity.go.kr/np",
        "closed": "매주 월요일 / 법정공휴일",
        "operatingTime": "열람실(08시~22시/휴관일 09시~18시), 문헌자료실(09시~22시,토·일 09시~18시)",
        "BookCount": 79206
      }
    },
    {
      "lib": {
        "libCode": "141236",
        "libName": "광주시립오포도서관",
        "address": "경기도 광주시 오포읍 오포로 885",
        "tel": "031-760-5697",
        "fax": "031-760-1435",
        "latitude": "37.3692382",
        "longitude": "127.2312356",
        "homepage": "https://lib.gjcity.go.kr/op",
        "closed": "매주 금요일 / 법정공휴일",
        "operatingTime": "열람실(08시~23시/휴관일 09시~18시), 문헌자료실(09시~22시,토·일 09시~18시)",
        "BookCount": 122381
      }
    },
    {
      "lib": {
        "libCode": "141114",
        "libName": "광주시립중앙도서관",
        "address": "경기도 광주시 문화로 82",
        "tel": "031-760-5678",
        "fax": "031-760-1435",
        "latitude": "37.4105616",
        "longitude": "127.2528784",
        "homepage": "https://lib.gjcity.go.kr",
        "closed": "매주 월요일 / 법정공휴일",
        "operatingTime": "열람실(07시~24시/휴관일 09시~18시), 문헌자료실(09시~22시,토·일 09시~18시)",
        "BookCount": 394182
      }
    },
    {
      "lib": {
        "libCode": "141512",
        "libName": "광주시립초월도서관",
        "address": "경기도 광주시 초월읍 무들로 3-26",
        "tel": "031-760-5688",
        "fax": "031-760-1435",
        "latitude": "37.3870605",
        "longitude": "127.2909196",
        "homepage": "https://lib.gjcity.go.kr/cw",
        "closed": "매주 금요일 / 법정공휴일",
        "operatingTime": "열람실(08시~22시/휴관일 09시~18시), 문헌자료실(09시~22시,토·일 09시~18시)",
        "BookCount": 114422
      }
    },
    {
      "lib": {
        "libCode": "111036",
        "libName": "광진정보도서관",
        "address": "서울특별시 광진구 아차산로78길 90",
        "tel": "02-3437-5092",
        "fax": "02-3437-0165",
        "latitude": "37.5506122",
        "longitude": "127.108206",
        "homepage": "http://www.gwangjinlib.seoul.kr/",
        "closed": "매월 둘째주, 넷째주 화요일 / 국경일, 일요일을 제외한 국가지정공휴일, 임시공휴일(단, 일요일과 겹치는 경우 휴관), 장서 점검 및 관장이 필요하다고 인정하는 날",
        "operatingTime": "평일/ 자료실 09:00~22:00 (어린이실,멀티미디어실 18:00시), 열람실 09:00~23:00 , 주말/ 자료실 09:00~17:00, 열람실 09:00~22:00",
        "BookCount": 581711
      }
    },
    {
      "lib": {
        "libCode": "143001",
        "libName": "괴산교육도서관",
        "address": "충청북도 괴산군 괴산읍 읍내로12길 38",
        "tel": "043-833-0319",
        "fax": "043-833-3221",
        "latitude": "36.8109221",
        "longitude": "127.7920861",
        "homepage": "http://www.gselib.go.kr/",
        "closed": "매월 첫째주, 셋째주 월요일 / 공휴일(공휴일이 일요일과 중복될 경우 휴관)",
        "operatingTime": "자료실 09:00-18:00, 열람실 08:00-22:00(동절기 08:00-21:00)",
        "BookCount": 115163
      }
    },
    {
      "lib": {
        "libCode": "141129",
        "libName": "구갈희망누리도서관",
        "address": "경기도 용인시 기흥구 갈곡로12번길 1",
        "tel": "031-324-6561",
        "fax": "-",
        "latitude": "37.2726108",
        "longitude": "127.13032",
        "homepage": "http://lib.yongin.go.kr/gugal/",
        "closed": "매주 일요일 / 명절(신정, 설연휴, 추석연휴), 법정공휴일, 도서관의 특별한 사정으로 인한 휴관",
        "operatingTime": "-",
        "BookCount": 74797
      }
    },
    {
      "lib": {
        "libCode": "741008",
        "libName": "구래작은도서관",
        "address": "경기도 김포시 김포한강9로115번길 25, 2층",
        "tel": "031-987-0160",
        "fax": "-",
        "latitude": "37.2937629",
        "longitude": "127.0000255",
        "homepage": "http://www.gimpo.go.kr/lib/index.do",
        "closed": "매주 토요일, 일요일 / 법정공휴일 등",
        "operatingTime": "09:00~18:00",
        "BookCount": 10491
      }
    },
    {
      "lib": {
        "libCode": "146005",
        "libName": "구례공공도서관",
        "address": "전라남도 구례군 구례읍 학교길 119-6",
        "tel": "061-782-2366",
        "fax": "061-782-0755",
        "latitude": "35.2101649",
        "longitude": "127.4614034",
        "homepage": "http://grlib.jne.go.kr/",
        "closed": "매주 월요일 / 일요일이 아닌 관공서의 공휴일, 기타 특별한 사유로 관장이 지정한 날",
        "operatingTime": "08:00~22:00",
        "BookCount": 119822
      }
    },
    {
      "lib": {
        "libCode": "111009",
        "libName": "구로도서관",
        "address": "서울특별시 구로구 공원로 15",
        "tel": "02-6958-2800",
        "fax": "02-6958-2888",
        "latitude": "37.4985419",
        "longitude": "126.891674",
        "homepage": "http://grlib.sen.go.kr/",
        "closed": "매월 첫째주, 셋째주 수요일 / 일요일을 제외한 법정공휴일, 휴관이 필요하다고 인정하는 날",
        "operatingTime": "07(08):00-23(23):00",
        "BookCount": 204864
      }
    },
    {
      "lib": {
        "libCode": "147125",
        "libName": "구룡포 미르아라작은도서관",
        "address": "경상북도 포항시 남구 구룡포읍 구룡포길65번길 7",
        "tel": "054-276-4122",
        "fax": "-",
        "latitude": "35.9911577",
        "longitude": "129.552533",
        "homepage": "http://phlib.pohang.go.kr/",
        "closed": "매주 일요일 / 법정공휴일",
        "operatingTime": "-",
        "BookCount": 6592
      }
    },
    {
      "lib": {
        "libCode": "147062",
        "libName": "구미시립봉곡도서관",
        "address": "경상북도 구미시 봉곡로15길 54",
        "tel": "054-480-2100",
        "latitude": "36.1529195",
        "longitude": "128.3076996",
        "homepage": "http://bk.gumilib.or.kr",
        "closed": "매월 둘째주, 넷째주 월요일 / 법정공휴일",
        "operatingTime": "종합자료실 09:00~21:00(토,일 09:00~17:00)",
        "BookCount": 182170
      }
    },
    {
      "lib": {
        "libCode": "147119",
        "libName": "구미시립상모정수도서관",
        "address": "경상북도 구미시 상사서로4길 10",
        "tel": "054-480-4730",
        "latitude": "36.0873769",
        "longitude": "128.3564442",
        "homepage": "http://sj.gumilib.or.kr",
        "closed": "매월 둘째주, 넷째주 월요일 / 법정공휴일",
        "operatingTime": "종합자료실 09:00~21:00(토,일 09:00~17:00)",
        "BookCount": 102594
      }
    },
    {
      "lib": {
        "libCode": "147029",
        "libName": "구미시립선산도서관",
        "address": "경상북도 구미시 선산읍 선산대로 1400-16",
        "tel": "054-480-2120",
        "latitude": "36.2387879",
        "longitude": "128.3048705",
        "homepage": "http://ss.gumilib.or.kr",
        "closed": "매월 첫째주, 셋째주 월요일 / 법정공휴일",
        "operatingTime": "종합자료실 09:00~21:00(토,일 09:00~17:00)",
        "BookCount": 169092
      }
    },
    {
      "lib": {
        "libCode": "147051",
        "libName": "구미시립인동도서관",
        "address": "경상북도 구미시 인동14길 14",
        "tel": "054-480-4700",
        "latitude": "36.0990913",
        "longitude": "128.4236401",
        "homepage": "http://id.gumilib.or.kr",
        "closed": "매월 둘째주, 넷째주 월요일 / 법정공휴일",
        "operatingTime": "종합자료실 09:00~21:00(토,일 09:00~17:00)",
        "BookCount": 201265
      }
    },
    {
      "lib": {
        "libCode": "147038",
        "libName": "구미시립중앙도서관",
        "address": "경상북도 구미시 경은로 85",
        "tel": "054-480-4660",
        "latitude": "36.1140333",
        "longitude": "128.335603",
        "homepage": "http://lib.gumi.go.kr",
        "closed": "매월 첫째주, 셋째주 월요일 / 법정공휴일",
        "operatingTime": "종합자료실 09:00~22:00(토,일 09:00~17:00)",
        "BookCount": 330388
      }
    },
    {
      "lib": {
        "libCode": "141118",
        "libName": "구성도서관",
        "address": "경기도 용인시 기흥구 구성로77번길 17",
        "tel": "031-324-4131",
        "fax": "-",
        "latitude": "37.2965012",
        "longitude": "127.1189634",
        "homepage": "http://lib.yongin.go.kr/guseong/",
        "closed": "매월 첫째주, 셋째주 월요일 / 명절(신정, 설연휴, 추석연휴), 법정공휴일(열람실만 개방), 도서관의 특별한 사정으로 인한 휴관",
        "operatingTime": "자료실(평일09:00~18:00, 주말09:00~17:00), 열람실(07:00~24:00),*종합자료실 평일 22:00시까지 연장운영",
        "BookCount": 190808
      }
    },
    {
      "lib": {
        "libCode": "130022",
        "libName": "구암도서관",
        "address": "대전광역시 유성구 유성대로626번길 57",
        "tel": "042-601-6630",
        "fax": "042-611-2876",
        "latitude": "36.3492563",
        "longitude": "127.3300408",
        "homepage": "http://lib.yuseong.go.kr/",
        "closed": "매주 일요일 / 국경일, 정부에서 정한 공휴일, 도서관 사정으로 휴관하는 날",
        "operatingTime": "열람실 : 월~토 8:00~22:00 / 종합자료실 : 화~금 9:00~22:00, 월, 토 9:00~18:00 / 어린이실 : 월~토 9:00~18:00",
        "BookCount": 55663
      }
    },
    {
      "lib": {
        "libCode": "111305",
        "libName": "구의제3동도서관",
        "address": "서울특별시 광진구 구의동 587-29",
        "tel": "02-454-6294",
        "fax": "02-454-6295",
        "latitude": "37.5380702",
        "longitude": "127.0896864",
        "homepage": "http://www.gwangjinlib.seoul.kr/",
        "closed": "매월 둘째주, 넷째주 월요일 / 국경일, 일요일을 제외한 국가지정공휴일, 임시공휴일(단, 일요일과 겹치는 경우 휴관), 장서 점검 및 관장이 필요하다고 인정하는 날",
        "operatingTime": "오전 9시",
        "BookCount": 51633
      }
    },
    {
      "lib": {
        "libCode": "125013",
        "libName": "구즉도서관",
        "address": "대전광역시 유성구 와룡로37번길 20",
        "tel": "042-601-6510",
        "fax": "042-611-2665",
        "latitude": "36.4294702",
        "longitude": "127.3805883",
        "homepage": "http://lib.yuseong.go.kr/",
        "closed": "매주 월요일 / 국경일, 정부에서 정한 공휴일, 도서관 사정으로 휴관하는 날",
        "operatingTime": "동절:오전8시~오후10시/하절:오전7시~오후10:00",
        "BookCount": 143208
      }
    },
    {
      "lib": {
        "libCode": "727011",
        "libName": "구지면 작은도서관",
        "address": "대구광역시 달성군 구지면 창리로11길 90",
        "tel": "053-614-0985",
        "fax": "-",
        "latitude": "35.6604264",
        "longitude": "128.415043",
        "homepage": "http://dalseong.daegu.kr/culture/index.do?menu_id=00001928",
        "closed": "-",
        "operatingTime": "-",
        "BookCount": 12311
      }
    },
    {
      "lib": {
        "libCode": "50001",
        "libName": "국립세종도서관",
        "address": "세종특별자치시 다솜3로 48",
        "tel": "044-900-9114",
        "fax": "044-900-9055",
        "latitude": "36.4989631",
        "longitude": "127.268342",
        "homepage": "http://sejong.nl.go.kr/",
        "closed": "매월 둘째주, 넷째주 월요일 / 일요일을 제외한 관공서의 공휴일(단, 설, 추석 연휴기간 중의 일요일은 휴관), 기타 관장이 필요하다고 인정하는 날",
        "operatingTime": "주중 09:00~21:00,  주말 09:00~18:00",
        "BookCount": 953625
      }
    },
    {
      "lib": {
        "libCode": "145121",
        "libName": "군산시립늘푸른도서관",
        "address": "전라북도 군산시 하나운로 17",
        "tel": "063-454-5996",
        "fax": "063-454-5989",
        "latitude": "35.9606645",
        "longitude": "126.6989171",
        "homepage": "http://lib.gunsan.go.kr",
        "closed": "매주 일요일 / 법정공휴일",
        "operatingTime": "09:00~22:00(월-금) / 09:00~17:00(토)",
        "BookCount": 78511
      }
    },
    {
      "lib": {
        "libCode": "145002",
        "libName": "군산시립도서관",
        "address": "전라북도 군산시 축동로 72",
        "tel": "063-454-5620",
        "fax": "063-466-0367",
        "latitude": "35.9658352",
        "longitude": "126.7112168",
        "homepage": "http://lib.gunsan.go.kr",
        "closed": "매주 월요일 / 법정공휴일",
        "operatingTime": "09:00~22:00(화-금) / 09:00~17:00(토-일)",
        "BookCount": 211622
      }
    },
    {
      "lib": {
        "libCode": "145122",
        "libName": "군산시립설림도서관",
        "address": "전라북도 군산시 설림길 25",
        "tel": "063-454-5710",
        "fax": "063-461-7542",
        "latitude": "35.9730164",
        "longitude": "126.6844042",
        "homepage": "http://lib.gunsan.go.kr",
        "closed": "매주 일요일 / 법정공휴일",
        "operatingTime": "09:00~22:00(월-금) / 09:00~17:00(토)",
        "BookCount": 54639
      }
    },
    {
      "lib": {
        "libCode": "145029",
        "libName": "군산시립임피채만식도서관",
        "address": "전라북도 군산시 임피면 임피향교길 39",
        "tel": "063-454-5652",
        "fax": "063-466-0367",
        "latitude": "35.9872902",
        "longitude": "126.8486696",
        "homepage": "http://lib.gunsan.go.kr",
        "closed": "매주 일요일 / 법정공휴일",
        "operatingTime": "09:00~18:00(월-금) / 09:00~18:00(토)",
        "BookCount": 50875
      }
    },
    {
      "lib": {
        "libCode": "141135",
        "libName": "군포시중앙도서관",
        "address": "경기도 군포시 수리산로 79",
        "tel": "031-390-8866",
        "fax": "031-390-8867",
        "latitude": "37.3551341",
        "longitude": "126.9157442",
        "homepage": "https://www.gunpolib.go.kr/",
        "closed": "매주 금요일 / 법정공휴일, 신정, 구정, 추석연휴는 전체 휴관",
        "operatingTime": "월~목 09:00~22:00, 토~일 09:00~18:00",
        "BookCount": 396199
      }
    },
    {
      "lib": {
        "libCode": "131061",
        "libName": "극동푸른작은도서관",
        "address": "울산광역시 북구 신천로 27, 관리동 1층",
        "tel": "052-285-3340",
        "fax": "-",
        "latitude": "35.6415845",
        "longitude": "129.3480783",
        "homepage": "https://usbl.bukgu.ulsan.kr/",
        "closed": "매주 토요일, 일요일 / 법정공휴일",
        "operatingTime": "-",
        "BookCount": 7548
      }
    },
    {
      "lib": {
        "libCode": "147141",
        "libName": "근남작은도서관",
        "address": "경상북도 울진군 근남면 울진북로 151-3, 2층",
        "tel": "054-781-6651",
        "fax": "054-781-6781",
        "latitude": "36.9636125",
        "longitude": "129.3955823",
        "homepage": "https://lib.uljin.go.kr",
        "closed": "매주 일요일 / 법정공휴일",
        "operatingTime": "오전 09:00 ~ 오후 06:00",
        "BookCount": 6327
      }
    },
    {
      "lib": {
        "libCode": "341132",
        "libName": "근로복지작은도서관",
        "address": "경기도 안산시 단원구 선부광장로 47",
        "tel": "070-4047-5962",
        "fax": "-",
        "latitude": "37.3345852",
        "longitude": "126.8121816",
        "homepage": "https://lib.iansan.net/",
        "closed": "매주 일요일 / 법정공휴일, 기타 센터가 필요하다고 인정하는 날",
        "operatingTime": "-",
        "BookCount": 26720
      }
    },
    {
      "lib": {
        "libCode": "147121",
        "libName": "근로종합복지회관작은도서관",
        "address": "경상북도 포항시 남구 철강로 388",
        "tel": "054-270-4771",
        "fax": "-",
        "latitude": "35.9772867",
        "longitude": "129.379979",
        "homepage": "-",
        "closed": "-",
        "operatingTime": "-",
        "BookCount": 12919
      }
    },
    {
      "lib": {
        "libCode": "741001",
        "libName": "글마루작은도서관",
        "address": "경기도 부천시 경인옛로38번길 41",
        "tel": "032-346-3451",
        "fax": "-",
        "latitude": "37.4789141",
        "longitude": "126.796399",
        "homepage": "http://bcsl.go.kr/",
        "closed": "매주 일요일 / 법정공휴일",
        "operatingTime": "-",
        "BookCount": 13181
      }
    },
    {
      "lib": {
        "libCode": "111062",
        "libName": "글빛정보도서관",
        "address": "서울특별시 관악구 관악로30길 23",
        "tel": "02-878-7460",
        "fax": "02-878-7461",
        "latitude": "37.4861679",
        "longitude": "126.95965",
        "homepage": "http://lib.gwanak.go.kr/",
        "closed": "매주 수요일 / 국가공휴일(단, 일요일과 법정공휴일이 겹칠 경우 휴관), 도서관 사정으로 휴관하는 날",
        "operatingTime": "09:00~23:00",
        "BookCount": 88039
      }
    },
    {
      "lib": {
        "libCode": "148075",
        "libName": "글혜윰작은도서관",
        "address": "경상남도 김해시 진영읍 김해대로361번길 34, 진영코아루아파트 관리동 2층",
        "tel": "055-342-0674",
        "fax": "-",
        "latitude": "35.310179",
        "longitude": "128.730168",
        "homepage": "http://lib.gimhae.go.kr/01293/01298/00116.web",
        "closed": "매주 월요일, 일요일 / 법정공휴일, 임시공휴일",
        "operatingTime": "-",
        "BookCount": 10427
      }
    },
    {
      "lib": {
        "libCode": "144041",
        "libName": "금산기적의도서관",
        "address": "충청남도 금산군 금산읍 비단로 296-13",
        "tel": "041-750-4482",
        "fax": "041-751-6731",
        "latitude": "36.1109996",
        "longitude": "127.4906171",
        "homepage": "http://library.geumsan.go.kr/",
        "closed": "매주 일요일",
        "operatingTime": "-",
        "BookCount": 68110
      }
    },
    {
      "lib": {
        "libCode": "144046",
        "libName": "금산인삼고을도서관",
        "address": "충청남도 금산군 금산읍 금산로 1543",
        "tel": "041-750-4470",
        "fax": "041-751-6730",
        "latitude": "36.1112746",
        "longitude": "127.4912762",
        "homepage": "http://library.geumsan.go.kr/",
        "closed": "매주 일요일",
        "operatingTime": "주중:09:00~22:00, 주말:09:00~21:00",
        "BookCount": 87101
      }
    },
    {
      "lib": {
        "libCode": "144069",
        "libName": "금산작은도서관",
        "address": "충청남도 금산군 금산읍 방아동4길 17",
        "tel": "041-754-1318",
        "fax": "-",
        "latitude": "36.0975478",
        "longitude": "127.4916323",
        "homepage": "http://library.geumsan.go.kr/",
        "closed": "매주 일요일 / 법정공휴일",
        "operatingTime": "-",
        "BookCount": 0
      }
    },
    {
      "lib": {
        "libCode": "143017",
        "libName": "금왕교육도서관",
        "address": "충청북도 음성군 금왕읍 응천서길27번길 33",
        "tel": "043-877-8761",
        "fax": "043-877-8764",
        "latitude": "36.9901121",
        "longitude": "127.5921688",
        "homepage": "http://www.gwelib.go.kr/",
        "closed": "매월 첫째주, 셋째주 월요일 / 일요일을 제외한 관공서의 공휴일, 기타 관장이 필요하다고 인정한 날",
        "operatingTime": "자료실(9:00~18:00), 열람실(동절기8:00~21:00/하절기8:00~22:00)",
        "BookCount": 88615
      }
    },
    {
      "lib": {
        "libCode": "111077",
        "libName": "금천구립가산도서관",
        "address": "서울특별시 금천구 가산로5길 43",
        "tel": "02-865-6817",
        "fax": "02-865-6820",
        "latitude": "37.4734504",
        "longitude": "126.8921274",
        "homepage": "http://geumcheonlib.seoul.kr",
        "closed": "매월 두번째, 네번째 월요일 / 법정공휴일",
        "operatingTime": "09:00 ~ 22:00",
        "BookCount": 109309
      }
    },
    {
      "lib": {
        "libCode": "111113",
        "libName": "금천구립금나래도서관",
        "address": "서울특별시 금천구 시흥대로73길 70",
        "tel": "02-2627-2991",
        "fax": "02-2627-2995",
        "latitude": "37.4567667",
        "longitude": "126.8954005",
        "homepage": "http://geumcheonlib.seoul.kr",
        "closed": "매월 마지막주 일요일 / 법정공휴일",
        "operatingTime": "09:00 ~ 22:00",
        "BookCount": 76444
      }
    },
    {
      "lib": {
        "libCode": "111040",
        "libName": "금천구립독산도서관",
        "address": "서울특별시 금천구 독산로54길 114",
        "tel": "02-863-9544",
        "fax": "02-863-9548",
        "latitude": "37.4674481",
        "longitude": "126.9080502",
        "homepage": "http://geumcheonlib.seoul.kr",
        "closed": "매월 첫번째, 세번째 월요일 / 법정공휴일",
        "operatingTime": "09:00 ~ 22:00",
        "BookCount": 148335
      }
    },
    {
      "lib": {
        "libCode": "111434",
        "libName": "금천구립시흥도서관",
        "address": "서울특별시 금천구 금하로 764",
        "tel": "02-809-8242",
        "fax": "02-809-8246",
        "latitude": "37.4524516",
        "longitude": "126.9070357",
        "homepage": "http://geumcheonlib.seoul.kr",
        "closed": "매월 첫번째, 세번째 금요일 / 법정공휴일",
        "operatingTime": "09:00 ~ 22:00",
        "BookCount": 78760
      }
    },
    {
      "lib": {
        "libCode": "147108",
        "libName": "기계면 버드내작은도서관",
        "address": "경상북도 포항시 북구 기계면 기계로 94",
        "tel": "054-243-6565",
        "fax": "-",
        "latitude": "36.0704002",
        "longitude": "129.20648",
        "homepage": "http://phlib.pohang.go.kr/",
        "closed": "매주 월요일, 일요일 / 법정공휴일",
        "operatingTime": "-",
        "BookCount": 8772
      }
    },
    {
      "lib": {
        "libCode": "147143",
        "libName": "기성작은도서관",
        "address": "경상북도 울진군 기성면 척산길 67, 2층",
        "tel": "054-788-6653",
        "fax": "054-788-6783",
        "latitude": "36.7983267",
        "longitude": "129.4517485",
        "homepage": "https://lib.uljin.go.kr",
        "closed": "매주 일요일 / 법정공휴일",
        "operatingTime": "오전 09:00 ~ 오후 06:00",
        "BookCount": 6535
      }
    },
    {
      "lib": {
        "libCode": "141239",
        "libName": "기흥도서관",
        "address": "경기도 용인시 기흥구 기흥로116번길 10",
        "tel": "031-324-4753",
        "fax": "031-324-4489",
        "latitude": "37.2862231",
        "longitude": "127.1141009",
        "homepage": "http://lib.yongin.go.kr/giheung/",
        "closed": "매월 첫째주, 셋째주 월요일 / 명절(신정, 설연휴, 추석연휴), 법정공휴일(열람실만 개방), 도서관의 특별한 사정으로 인한 휴관",
        "operatingTime": "[종합자료실-평일09:00~22:00/주말 09:00~17:00][어린이자료실,디지털자료실-평일 09:00~18:00/주말 09:00~17:00][열람실 07:00~24:00 / (국경일 09:00~18:00)]",
        "BookCount": 218160
      }
    },
    {
      "lib": {
        "libCode": "148085",
        "libName": "김해글로벗도서관",
        "address": "경상남도 김해시 가락로 81",
        "tel": "055-338-1616",
        "fax": "055-338-1637",
        "latitude": "35.234074",
        "longitude": "128.881242",
        "homepage": "http://lib.gimhae.go.kr/01293/01298/01304.web",
        "closed": "매주 금요일, 토요일 / 법정공휴일",
        "operatingTime": "-",
        "BookCount": 9357
      }
    },
    {
      "lib": {
        "libCode": "148180",
        "libName": "김해기적의도서관",
        "address": "경상남도 김해시 율하1로 55",
        "tel": "055-330-4651",
        "fax": "055-330-6795",
        "latitude": "35.175871",
        "longitude": "128.810384",
        "homepage": "http://lib.gimhae.go.kr/miracle.web",
        "closed": "매월 마지막 월요일 / 법정공휴일(임시공휴일 포함)",
        "operatingTime": "09:00 ~ 18:00",
        "BookCount": 80056
      }
    },
    {
      "lib": {
        "libCode": "148071",
        "libName": "김해청소년문화의집",
        "address": "경상남도 김해시 가락로176번길 3",
        "tel": "055-330-4634",
        "fax": "-",
        "latitude": "35.242247",
        "longitude": "128.87837",
        "homepage": "http://lib.gimhae.go.kr/01293/01298/00208.web",
        "closed": "매주 월요일 / 법정공휴일, 임시공휴일",
        "operatingTime": "-",
        "BookCount": 6088
      }
    },
    {
      "lib": {
        "libCode": "141215",
        "libName": "꿈꾸는새싹작은도서관",
        "address": "경기도 부천시 성오로149번길 18",
        "tel": "032-677-0162",
        "fax": "-",
        "latitude": "37.52592",
        "longitude": "126.79781",
        "homepage": "http://bcsl.go.kr/",
        "closed": "매주 일요일 / 법정공휴일",
        "operatingTime": "-",
        "BookCount": 28222
      }
    },
    {
      "lib": {
        "libCode": "131043",
        "libName": "꿈꾸는작은도서관",
        "address": "울산광역시 북구 아진로 75",
        "tel": "052-282-0604",
        "fax": "-",
        "latitude": "35.6297775",
        "longitude": "129.338959",
        "homepage": "https://usbl.bukgu.ulsan.kr/",
        "closed": "매주 토요일, 일요일 / 법정공휴일",
        "operatingTime": "-",
        "BookCount": 9866
      }
    },
    {
      "lib": {
        "libCode": "111469",
        "libName": "꿈나래어린이영어도서관",
        "address": "서울 마포구 월드컵로13길 80",
        "tel": "02-323-1840",
        "fax": "-",
        "latitude": "37.5551863",
        "longitude": "126.9056598",
        "homepage": "https://mplib.mapo.go.kr/englib/",
        "closed": "매주 일요일 / 법정공휴일",
        "operatingTime": "-",
        "BookCount": 22835
      }
    },
    {
      "lib": {
        "libCode": "141197",
        "libName": "꿈나무가족작은도서관",
        "address": "경기도 부천시 부광로8번길 53",
        "tel": "032-345-5919",
        "fax": "-",
        "latitude": "37.4826",
        "longitude": "126.81018",
        "homepage": "http://bcsl.go.kr/",
        "closed": "매주 토요일, 일요일 / 법정공휴일",
        "operatingTime": "-",
        "BookCount": 25085
      }
    },
    {
      "lib": {
        "libCode": "111104",
        "libName": "꿈을이루는작은도서관",
        "address": "서울 마포구 마포대로7길 18",
        "tel": "02-706-4785",
        "fax": "-",
        "latitude": "37.5470652",
        "longitude": "126.9521435",
        "homepage": "https://mplib.mapo.go.kr/libsmall/",
        "closed": "매주 일요일 / 법정공휴일",
        "operatingTime": "-",
        "BookCount": 20551
      }
    },
    {
      "lib": {
        "libCode": "146007",
        "libName": "나주공공도서관",
        "address": "전라남도 나주시 남고문로 51",
        "tel": "061-330-6750",
        "fax": "061-333-6050",
        "latitude": "35.0294249",
        "longitude": "126.7165623",
        "homepage": "http://njlib.jne.go.kr/",
        "closed": "매월 둘째주, 넷째주 월요일 / 법정공휴일, 특별한 사유로 관장이 지정한 날, 대체공휴일",
        "operatingTime": "하절기 07:30~22:00 동절기 08:30~22:00",
        "BookCount": 409958
      }
    },
    {
      "lib": {
        "libCode": "141599",
        "libName": "남사도서관",
        "address": "경기도 용인시 처인구 남사면 한숲로 61",
        "tel": "031-324-4735",
        "fax": "031-324-4739",
        "latitude": "37.1523515",
        "longitude": "127.1726883",
        "homepage": "https://lib.yongin.go.kr/namsa",
        "closed": "매월 첫째주, 셋째주 월요일 / 명절(신정, 설연휴, 추석연휴), 법정공휴일, 도서관의 특별한 사정으로 인한 휴관",
        "operatingTime": "월~금 : 어린이자료실 09:00~18:00, 종합자료실 09:00~22:00 / 토~일 : 09:00~17:00",
        "BookCount": 53961
      }
    },
    {
      "lib": {
        "libCode": "111010",
        "libName": "남산도서관",
        "address": "서울특별시 용산구 소월로 109",
        "tel": "02-754-7338",
        "fax": "02-754-6545",
        "latitude": "37.5530786",
        "longitude": "126.981334",
        "homepage": "http://nslib.sen.go.kr/",
        "closed": "매월 첫째주, 셋째주 월요일 / 법정공휴일, 도서관 사정으로 휴관하는 일",
        "operatingTime": "인문사회과학실 평일 09:00 ~ 20:00 토,일 09:00 ~ 17:00, 문학실/자연과학실 평일 09:00 ~ 20:00 토,일 09:00 ~ 17:00(단, 11월-2월에는 평일 09:00 ~ 19:00), 전자정보실/독서치료어학실/연속간행물실 평일 09:00 ~ 18:00 토,일 09:00 ~ 17:00, 일반열람실 평일 07:00 ~ 23:00 토,일 07:00 ~ 22:00(단, 11월-2월에는 평일 08:00 ~ 23:00 토,일 08:00 ~ 22:00)",
        "BookCount": 695815
      }
    },
    {
      "lib": {
        "libCode": "111180",
        "libName": "남산타운문화센터 어린이도서관",
        "address": "서울특별시 중구 다산로32",
        "tel": "02-2230-2941",
        "fax": "02-2285-4608",
        "latitude": "37.5495114",
        "longitude": "127.0119",
        "homepage": "https://www.e-junggulib.or.kr/",
        "closed": "매월 둘째주, 넷째주 일요일, 매월 첫째주, 셋째주 월요일 / 법정공휴일, 단 월요일 휴관일은 체육센터 정기휴관일에 따라 변동가능",
        "operatingTime": "09:00~18:00",
        "BookCount": 30224
      }
    },
    {
      "lib": {
        "libCode": "141137",
        "libName": "남양주시 별내도서관",
        "address": "경기도 남양주시 별내면 청학로 86-1",
        "tel": "031-590-8808",
        "fax": "031-590-8809",
        "latitude": "37.7081965",
        "longitude": "127.1177053",
        "homepage": "http://lib.nyj.go.kr/bnae/",
        "closed": "매월 두번째, 네번째 금요일 / 1월 1일, 설날·추석 연휴(대체공휴일 포함)",
        "operatingTime": "08:00 ~ 22:00",
        "BookCount": 172493
      }
    },
    {
      "lib": {
        "libCode": "141568",
        "libName": "남양주시 별빛도서관",
        "address": "경기도 남양주시 별내중앙로 102",
        "tel": "031-590-5350",
        "fax": "-",
        "latitude": "37.6509135",
        "longitude": "127.1204532",
        "homepage": "http://lib.nyj.go.kr/bbit/",
        "closed": "매월 첫번째, 세번째 월요일 / 1월 1일, 설날·추석 연휴(대체공휴일 포함)",
        "operatingTime": "08:00 ~ 22:00",
        "BookCount": 88760
      }
    },
    {
      "lib": {
        "libCode": "141176",
        "libName": "남양주시 오남도서관",
        "address": "경기도 남양주시 오남읍 양지로240번길 12",
        "tel": "031-590-8531",
        "fax": "031-590-8549",
        "latitude": "37.6980757",
        "longitude": "127.1976087",
        "homepage": "http://lib.nyj.go.kr/onam/",
        "closed": "매월 첫번째, 세번째 금요일 / 1월 1일, 설날·추석 연휴(대체공휴일 포함)",
        "operatingTime": "08:00 ~ 22:00",
        "BookCount": 145028
      }
    },
    {
      "lib": {
        "libCode": "141146",
        "libName": "남양주시 와부도서관",
        "address": "경기도 남양주시 와부읍 월문천로 43",
        "tel": "031-590-8920",
        "fax": "031-590-8919",
        "latitude": "37.5856432",
        "longitude": "127.2174767",
        "homepage": "http://lib.nyj.go.kr/waboo/",
        "closed": "매월 두번째, 네번째 금요일 / 1월 1일, 설날·추석 연휴(대체공휴일 포함)",
        "operatingTime": "08:00 ~ 22:00",
        "BookCount": 158615
      }
    },
    {
      "lib": {
        "libCode": "141091",
        "libName": "남양주시 진건도서관",
        "address": "경기도 남양주시 진건읍 진건오남로 41-25",
        "tel": "031-590-8260",
        "fax": "031-590-8259",
        "latitude": "37.6550996",
        "longitude": "127.1774145",
        "homepage": "http://lib.nyj.go.kr/jingeon/",
        "closed": "매월 두번째, 네번째 금요일 / 1월 1일, 설날·추석 연휴(대체공휴일 포함)",
        "operatingTime": "08:00 ~ 22:00",
        "BookCount": 268673
      }
    },
    {
      "lib": {
        "libCode": "141521",
        "libName": "남양주시 진접도서관",
        "address": "경기도 남양주시 진접읍 금강로 1554-11",
        "tel": "031-590-5310",
        "fax": "031-590-5309",
        "latitude": "37.7306138",
        "longitude": "127.193936",
        "homepage": "http://lib.nyj.go.kr/jinjeop/",
        "closed": "매월 첫번째, 세번째 월요일 / 1월 1일, 설날·추석 연휴(대체공휴일 포함)",
        "operatingTime": "08:00 ~ 22:00",
        "BookCount": 120106
      }
    },
    {
      "lib": {
        "libCode": "141536",
        "libName": "남양주시 진접푸른숲도서관",
        "address": "경기도 남양주시 진접읍 해밀예당2로 35",
        "tel": "031-590-5330",
        "fax": "031-590-5329",
        "latitude": "37.7153353",
        "longitude": "127.1926723",
        "homepage": "http://lib.nyj.go.kr/jinjeopgw/",
        "closed": "매월 두번째, 네번째 월요일 / 1월 1일, 설날·추석 연휴(대체공휴일 포함)",
        "operatingTime": "08:00 ~ 22:00",
        "BookCount": 117326
      }
    },
    {
      "lib": {
        "libCode": "141401",
        "libName": "남양주시 퇴계원도서관",
        "address": "경기도 남양주시 퇴계원읍 도제원로 12",
        "tel": "031-590-3910",
        "fax": "031-590-8883",
        "latitude": "37.6490687",
        "longitude": "127.1455537",
        "homepage": "http://lib.nyj.go.kr/toegyewon/",
        "closed": "매월 두번째, 네번째 월요일 / 1월 1일, 설날·추석 연휴(대체공휴일 포함)",
        "operatingTime": "08:00 ~ 22:00",
        "BookCount": 132625
      }
    },
    {
      "lib": {
        "libCode": "141175",
        "libName": "남양주시 평내도서관",
        "address": "경기도 남양주시 의안로 134",
        "tel": "031-590-8560",
        "fax": "031-590-8559",
        "latitude": "37.6417066",
        "longitude": "127.2388929",
        "homepage": "http://lib.nyj.go.kr/pynae/",
        "closed": "매월 첫번째, 세번째 월요일 / 1월 1일, 설날·추석 연휴(대체공휴일 포함)",
        "operatingTime": "08:00 ~ 22:00",
        "BookCount": 151933
      }
    },
    {
      "lib": {
        "libCode": "141585",
        "libName": "남양주시 호평도서관",
        "address": "경기 남양주시 천마산로 67",
        "latitude": "37.6675666",
        "longitude": "127.2481052",
        "closed": "매월 두번째, 네번째 월요일 / 1월 1일, 설날·추석 연휴(대체공휴일 포함)",
        "operatingTime": "유아자료실 : 09:00~18:00(평일,주말) / 어린이자료실 및 디지털정보실 : 09:00~20:00(평일), 09:00~18:00(주말) / 문헌정보실 : 09:00~22:00(평일), 09:00~18:00(주말) / 열람실 : 08:00~22:00(평일,주말)",
        "BookCount": 89620
      }
    },
    {
      "lib": {
        "libCode": "141071",
        "libName": "남양주시 화도도서관",
        "address": "경기도 남양주시 화도읍 수레로1260번길 33",
        "tel": "031-590-4587",
        "fax": "031-590-4588",
        "latitude": "37.6500989",
        "longitude": "127.3058023",
        "homepage": "http://lib.nyj.go.kr/hwado/",
        "closed": "매월 첫번째, 세번째 금요일 / 1월 1일, 설날·추석 연휴(대체공휴일 포함)",
        "operatingTime": "08:00 ~ 22:00",
        "BookCount": 250868
      }
    },
    {
      "lib": {
        "libCode": "711399",
        "libName": "남영동 작은도서관",
        "address": "서울특별시 용산구 두텁바위로1길 13, B1층",
        "tel": "02-775-9260",
        "fax": "-",
        "latitude": "37.545666",
        "longitude": "126.9730745",
        "homepage": "https://www.yslibrary.or.kr/small",
        "closed": "매주 토요일, 일요일",
        "operatingTime": "평일: 09:00~17:00",
        "BookCount": 9347
      }
    },
    {
      "lib": {
        "libCode": "146006",
        "libName": "남평공공도서관",
        "address": "전라남도 나주시 남평읍 남평3로 14-13",
        "tel": "061-337-9436",
        "fax": "061-337-9438",
        "latitude": "35.0425906",
        "longitude": "126.8459762",
        "homepage": "http://nplib.jne.go.kr/",
        "closed": "매주 월요일 / 법정공휴일, 일요일이 아닌 관공서의 공휴일, 특별한 사유로 관장이 지정한 날",
        "operatingTime": "08:00~22:00/08:30~21:00",
        "BookCount": 110055
      }
    },
    {
      "lib": {
        "libCode": "741464",
        "libName": "남한산성작은도서관",
        "address": "경기도 광주시 남한산성면 남한산성로 745",
        "tel": "031-760-8740",
        "fax": "031-760-1435",
        "latitude": "37.4773703",
        "longitude": "127.1872933",
        "homepage": "https://lib.gjcity.go.kr/slib",
        "closed": "매주 일요일, 월요일 / 법정공휴일",
        "operatingTime": "화~토(주5일) 09:00~18:00",
        "BookCount": 4504
      }
    },
    {
      "lib": {
        "libCode": "111482",
        "libName": "내를건너서숲으로도서관",
        "address": "서울특별시 은평구 증산로17길 50",
        "tel": "02-307-6701",
        "fax": "02-307-6703",
        "latitude": "37.5913717",
        "longitude": "126.9078047",
        "homepage": "http://www.nslib.or.kr/",
        "closed": "매주월요일 / 법정(임시)공휴일, 기타 도서관 사정에 의한 임시휴관일",
        "operatingTime": "평일 : 09시-22시(어린이자료실은 09시-19시), 주말 : 09시-18시",
        "BookCount": 37154
      }
    },
    {
      "lib": {
        "libCode": "111112",
        "libName": "내손책고운도서관",
        "address": "경기도 의왕시 갈미2로 4",
        "tel": "031-345-3225",
        "fax": "-",
        "latitude": "37.37826",
        "longitude": "126.97563",
        "homepage": "http://www.uwlib.or.kr/",
        "closed": "매주 월요일, 일요일 / 법정공휴일",
        "operatingTime": "-",
        "BookCount": 34696
      }
    },
    {
      "lib": {
        "libCode": "148087",
        "libName": "내외작은도서관",
        "address": "경상남도 김해시 금관대로1255",
        "tel": "055-337-0050",
        "fax": "-",
        "latitude": "35.237567",
        "longitude": "128.857848",
        "homepage": "http://lib.gimhae.go.kr/01293/01298/00172.web",
        "closed": "매주 월요일, 일요일 / 법정공휴일, 임시공휴일",
        "operatingTime": "-",
        "BookCount": 8895
      }
    },
    {
      "lib": {
        "libCode": "111047",
        "libName": "노원어린이도서관",
        "address": "서울특별시 노원구 한글비석로 346",
        "tel": "02-933-7145",
        "fax": "02-933-7133",
        "latitude": "37.6580084",
        "longitude": "127.076284",
        "homepage": "http://www.nowonlib.kr",
        "closed": "매월 둘째주, 넷째주 월요일",
        "operatingTime": "평일 09:00~18:00 / 주말 09:00~17:00",
        "BookCount": 119485
      }
    },
    {
      "lib": {
        "libCode": "111058",
        "libName": "노원정보도서관",
        "address": "서울특별시 노원구 노원로34길 43",
        "tel": "02-950-0050",
        "fax": "02-950-0059",
        "latitude": "37.6610613",
        "longitude": "127.0649973",
        "homepage": "http://www.nowonlib.kr",
        "closed": "매월 첫째주, 셋째주 월요일",
        "operatingTime": "하절기(3월~10월) 7:00~23:00, 동절기(11월~2월) 8:00~23:00",
        "BookCount": 232666
      }
    },
    {
      "lib": {
        "libCode": "111022",
        "libName": "노원평생학습관",
        "address": "서울특별시 노원구 동일로204길 13",
        "tel": "02-979-1741",
        "fax": "02-977-9182",
        "latitude": "37.6393958",
        "longitude": "127.067748",
        "homepage": "http://nwllc.sen.go.kr/",
        "closed": "매월 둘째주, 넷째주 월요일 / 법정공휴일(토, 일요일과 겹칠 경우 휴관), 휴관이 필요하다고 인정하는 날",
        "operatingTime": "[평일] 문헌정보실09:00~20:00, 어린이실,디지털실 09:00~18:00 [주말] 09:00~17:00",
        "BookCount": 390168
      }
    },
    {
      "lib": {
        "libCode": "130012",
        "libName": "노은도서관",
        "address": "대전광역시 유성구 노은동로234번길 34",
        "tel": "042-601-6610",
        "fax": "042-611-2733",
        "latitude": "36.381557",
        "longitude": "127.3206247",
        "homepage": "http://lib.yuseong.go.kr/",
        "closed": "매주 월요일 / 국경일, 정부에서 정한 공휴일, 도서관 사정으로 휴관하는 날",
        "operatingTime": "화요일-일요일",
        "BookCount": 88763
      }
    },
    {
      "lib": {
        "libCode": "711152",
        "libName": "녹번만화도서관",
        "address": "서울특별시 은평구 은평로 245",
        "tel": "02-356-1676",
        "fax": "-",
        "latitude": "37.601393",
        "longitude": "126.934879",
        "homepage": "http://www.eplib.or.kr/intro/lib02.asp",
        "closed": "매주 월요일 / 점심시간(12:00~13:00) 이용불가, 법정공휴일, 기타 도서관 사정에 의한 임시 휴관일",
        "operatingTime": "-",
        "BookCount": 4163
      }
    },
    {
      "lib": {
        "libCode": "727010",
        "libName": "논공읍 작은도서관",
        "address": "대구광역시 달성군 논공읍 논공로 697-9",
        "tel": "053-615-9191",
        "fax": "-",
        "latitude": "35.730443",
        "longitude": "128.451975",
        "homepage": "http://dalseong.daegu.kr/culture/index.do?menu_id=00001922",
        "closed": "-",
        "operatingTime": "-",
        "BookCount": 12261
      }
    },
    {
      "lib": {
        "libCode": "111071",
        "libName": "논현정보도서관",
        "address": "서울특별시 강남구 학동로 169",
        "tel": "02-511-7466",
        "fax": "-",
        "latitude": "37.517466",
        "longitude": "127.040487",
        "homepage": "https://library.gangnam.go.kr/nhilib",
        "closed": "매주 일요일 / 법정공휴일",
        "operatingTime": "-",
        "BookCount": 43454
      }
    },
    {
      "lib": {
        "libCode": "141121",
        "libName": "누리봄작은도서관",
        "address": "경기도 김포시 김포대로926번길 14, 2층",
        "tel": "031-5186-4888",
        "fax": "-",
        "latitude": "37.6248158",
        "longitude": "126.7145551",
        "homepage": "http://www.gimpo.go.kr/lib/index.do",
        "closed": "매주 토요일, 일요일 / 법정공휴일 등",
        "operatingTime": "평일 09:00~18:00(수요일 ~20:00)",
        "BookCount": 32906
      }
    },
    {
      "lib": {
        "libCode": "141083",
        "libName": "느티나무도서관",
        "address": "경기도 용인시 수지구 수풍로116번길 22",
        "tel": "031-262-3494",
        "fax": "031-262-6124",
        "latitude": "37.3340177",
        "longitude": "127.096092",
        "homepage": "http://www.neutinamu.org/",
        "closed": "매주 월요일, 목요일 / 법정공휴일",
        "operatingTime": "화,수,금,토: 10시-22시 / 일: 13시-18시",
        "BookCount": 85963
      }
    },
    {
      "lib": {
        "libCode": "141189",
        "libName": "다문화작은도서관",
        "address": "경기도 안산시 단원구 부부로 43",
        "tel": "031-493-2661",
        "fax": "-",
        "latitude": "37.332383",
        "longitude": "126.790301",
        "homepage": "https://lib.iansan.net/",
        "closed": "매주 월요일 / 국경일(법정공휴일)",
        "operatingTime": "-",
        "BookCount": 17296
      }
    },
    {
      "lib": {
        "libCode": "727012",
        "libName": "다사읍 서재 작은도서관",
        "address": "대구광역시 달성군 다사읍 서재본길 25",
        "tel": "053-588-6261",
        "fax": "-",
        "latitude": "35.8719858",
        "longitude": "128.49424",
        "homepage": "http://dalseong.daegu.kr/culture//index.do?menu_id=00001923",
        "closed": "-",
        "operatingTime": "-",
        "BookCount": 18470
      }
    },
    {
      "lib": {
        "libCode": "131037",
        "libName": "다울림작은도서관",
        "address": "울산광역시 북구 천곡길 137, 107동 지하2층",
        "tel": "052-286-6022",
        "fax": "-",
        "latitude": "35.6374664",
        "longitude": "129.3300097",
        "homepage": "https://usbl.bukgu.ulsan.kr/",
        "closed": "매월 첫째주, 셋째주 토요일, 일요일 / 법정공휴일",
        "operatingTime": "-",
        "BookCount": 17355
      }
    },
    {
      "lib": {
        "libCode": "143002",
        "libName": "단양교육도서관",
        "address": "충청북도 단양군 단양읍 상진12길 18",
        "tel": "043-423-1095",
        "fax": "043-423-2087",
        "latitude": "36.9796323",
        "longitude": "128.356686",
        "homepage": "http://dyelib.go.kr/",
        "closed": "매월 첫째주, 셋째주 월요일 / 일요일을 제외한 관공서의 공휴일, 기타 도서관 사정으로 휴관하는 날",
        "operatingTime": "09:00~22:00",
        "BookCount": 117095
      }
    },
    {
      "lib": {
        "libCode": "143094",
        "libName": "단양군립다누리도서관",
        "address": "충청북도 단양군 단양읍 수변로 111",
        "tel": "043-420-2951",
        "fax": "043-420-2959",
        "latitude": "36.985817",
        "longitude": "128.3707666",
        "homepage": "https://www.danyang.go.kr/danurilib",
        "closed": "매주 월요일 / 관공서의 공휴일에 관한 규정이 정하는 공휴일, 그 밖에 도서의 정리, 점검 및 시설의 보수, 정비 등이 필요할 때",
        "operatingTime": "09:00~22:00",
        "BookCount": 105582
      }
    },
    {
      "lib": {
        "libCode": "143019",
        "libName": "단양군립매포도서관",
        "address": "충청북도 단양군 매포읍 평동로 111-43",
        "tel": "043-422-1937",
        "fax": "043-422-1937",
        "latitude": "37.0324361",
        "longitude": "128.2972475",
        "homepage": "http://mepolib.danuri.go.kr/",
        "closed": "매주 월요일 / 법정공휴일",
        "operatingTime": "09:00 ~ 24:00",
        "BookCount": 58205
      }
    },
    {
      "lib": {
        "libCode": "111302",
        "libName": "달빛마루도서관",
        "address": "서울특별시 성북구 종암로 167",
        "tel": "02-911-0993",
        "fax": "02-911-0994",
        "latitude": "37.604481",
        "longitude": "127.031316",
        "homepage": "https://www.sblib.seoul.kr/",
        "closed": "매주 월요일 / 법정공휴일, 도서관 업무상 필요하여 관장이 지정한 날",
        "operatingTime": "09:00~18:00, 매주 수요일 09:00~21:00",
        "BookCount": 65626
      }
    },
    {
      "lib": {
        "libCode": "127001",
        "libName": "달서구립도원도서관",
        "address": "대구광역시 달서구 한실로 113",
        "tel": "053-667-4840",
        "fax": "053-667-4849",
        "latitude": "35.8068385",
        "longitude": "128.5389385",
        "homepage": "http://www.dalseolib.kr/",
        "closed": "매주 월요일 / 관공서의 공휴일, 도서관장이 필요하다고 인정하는 때",
        "operatingTime": "평일 09:00~20:00, 주말 09:00~17:00",
        "BookCount": 133094
      }
    },
    {
      "lib": {
        "libCode": "127012",
        "libName": "달서구립본리도서관",
        "address": "대구광역시 달서구 당산로 37-25",
        "tel": "053-667-4930",
        "fax": "053-667-4939",
        "latitude": "35.8405793",
        "longitude": "128.5418185",
        "homepage": "http://www.dalseolib.kr/",
        "closed": "매주 금요일 / 관공서의 공휴일, 도서관장이 필요하다고 인정하는 때",
        "operatingTime": "평일 09:00~20:00, 토·일요일 09:00~17:00",
        "BookCount": 109965
      }
    },
    {
      "lib": {
        "libCode": "127005",
        "libName": "달서구립성서도서관",
        "address": "대구광역시 달서구 선원남로 129",
        "tel": "053-667-4900",
        "fax": "053-667-4909",
        "latitude": "35.8574567",
        "longitude": "128.5144441",
        "homepage": "http://www.dalseolib.kr/",
        "closed": "매주 월요일 / 관공서의 공휴일, 도서관장이 필요하다고 인정하는 때",
        "operatingTime": "평일 09:00~20:00(어린이실 09:00~18:00), 주말 09:00~17:00",
        "BookCount": 118873
      }
    },
    {
      "lib": {
        "libCode": "127002",
        "libName": "달서구립어린이도서관",
        "address": "대구광역시 달서구 송현로 45",
        "tel": "053-667-4860",
        "fax": "053-667-4879",
        "latitude": "35.8224119",
        "longitude": "128.5470738",
        "homepage": "http://www.dalseolib.kr/",
        "closed": "매주 금요일 / 관공서의 공휴일, 도서관장이 필요하다고 인정하는 때",
        "operatingTime": "평일 09:00~18:00, 주말 09:00~17:00",
        "BookCount": 126621
      }
    },
    {
      "lib": {
        "libCode": "127081",
        "libName": "달성군립도서관",
        "address": "대구광역시 달성군 다사읍 달구벌대로174길 10-13",
        "tel": "053-584-0011",
        "fax": "053-584-0275",
        "latitude": "35.8593619",
        "longitude": "128.462388",
        "homepage": "http://www.dalseonglib.kr/",
        "closed": "매주 월요일 / 관공서의 공휴일, 도서관장이 필요하다고 인정하는 때",
        "operatingTime": "평일 09:00 ~ 22:00, 토일 09:00 ~ 17:00",
        "BookCount": 73209
      }
    },
    {
      "lib": {
        "libCode": "146008",
        "libName": "담양공공도서관",
        "address": "전라남도 담양군 담양읍 미리산길 31-48",
        "tel": "061-383-7435",
        "fax": "061-383-7439",
        "latitude": "35.3120442",
        "longitude": "126.983942",
        "homepage": "http://dylib.jne.go.kr/",
        "closed": "매주 월요일 / 법정공휴일 및 국경일, 대체공휴일, 특별한 사유로 관장이 지정한 날",
        "operatingTime": "3~10월 : 7시 30분-22시 / 11~2월 : 8시-22시",
        "BookCount": 130909
      }
    },
    {
      "lib": {
        "libCode": "741011",
        "libName": "당곡작은도서관",
        "address": "경기도 안산시 단원구 예술대학로 76",
        "tel": "031-481-3879",
        "fax": "-",
        "latitude": "37.3237954",
        "longitude": "126.8375919",
        "homepage": "https://lib.iansan.net/",
        "closed": "매주 월요일 / 국경일(법정공휴일)",
        "operatingTime": "-",
        "BookCount": 27608
      }
    },
    {
      "lib": {
        "libCode": "144034",
        "libName": "당진시립송악도서관",
        "address": "충청남도 당진시 송악읍 틀모시로 840",
        "tel": "041-350-4946",
        "fax": "041-360-6919",
        "latitude": "36.8903738",
        "longitude": "126.6939875",
        "homepage": "http://www.dangjin.go.kr/lib.do",
        "closed": "매주 월요일",
        "operatingTime": "9:00~22:00",
        "BookCount": 75475
      }
    },